
UserDevice login: admin
Password: 
Connected to 127.0.0.1

Entering character mode
Escape character is '^]'.

Command Line Interface
UserDevice> AT+MMSVRCELL
+MMSRVCELL:
 "servingcell","NOCONN","LTE","FDD",311,480,34CBC20,332,2300,4,5,5,D806,-87,-15,-51,13,-
OK
UserDevice> AT+MMSVRCELL
+MMSRVCELL:
 "servingcell","NOCONN","LTE","FDD",311,480,34CBC20,332,2300,4,5,5,D806,-87,-15,-51,11,-
OK
UserDevice> AT+MGPSNMEA
+MGPSNMEA:
 $GPGGA,202204.00,3857.212562,N,09515.742609,W,1,02,1.7,295.3,M,-32.0,M,,*52
 $GPRMC,202204.00,A,3857.212562,N,09515.742609,W,19.0,70.3,301123,2.5,E,A,V*5D
OK
UserDevice> AT+MMSVRCELL
+MMSRVCELL:
 "servingcell","NOCONN","LTE","FDD",311,480,34CBC20,332,2300,4,5,5,D806,-89,-17,-50,8,-
OK
UserDevice> AT+MGPSNMEA
+MGPSNMEA:
 $GPGGA,202208.00,3857.206872,N,09515.686292,W,1,02,1.8,295.8,M,-32.0,M,,*5C
 $GPRMC,202208.00,A,3857.206872,N,09515.686292,W,23.6,84.1,301123,2.5,E,A,V*51
OK
UserDevice> AT+MMSVRCELL
+MMSRVCELL:
 "servingcell","NOCONN","LTE","FDD",311,480,34CBC20,332,2300,4,5,5,D806,-88,-18,-49,8,-
OK
UserDevice> AT+MGPSNMEA
+MGPSNMEA:
 $GPGGA,,,,,,0,,,,,,,,*66
 $GPRMC,,V,,,,,,,,,,N*53
OK
UserDevice> AT+MMSVRCELL
+MMSRVCELL:
 "servingcell","NOCONN","LTE","FDD",311,480,34C1A20,260,2300,4,5,5,D806,-80,-14,-45,9,-
OK
UserDevice> AT+MGPSNMEA
+MGPSNMEA:
 $GPGGA,,,,,,0,,,,,,,,*66
 $GPRMC,,V,,,,,,,,,,N*53
OK
UserDevice> AT+MMSVRCELL
+MMSRVCELL:
 "servingcell","NOCONN","LTE","FDD",311,480,34F0C16,214,2300,4,5,5,D806,-77,-10,-47,14,-
OK
UserDevice> AT+MGPSNMEA
+MGPSNMEA:
 $GPGGA,,,,,,0,,,,,,,,*66
 $GPRMC,,V,,,,,,,,,,N*53
OK
UserDevice> AT+MMSVRCELL
+MMSRVCELL:
 "servingcell","NOCONN","LTE","FDD",311,480,34F0C16,214,2300,4,5,5,D806,-77,-9,-48,16,-
OK
UserDevice> AT+MGPSNMEA
+MGPSNMEA:
 $GPGGA,,,,,,0,,,,,,,,*66
 $GPRMC,,V,,,,,,,,,,N*53
OK
UserDevice> AT+MMSVRCELL
+MMSRVCELL:
 "servingcell","NOCONN","LTE","FDD",311,480,34F0C16,214,2300,4,5,5,D806,-77,-9,-47,14,-
OK
UserDevice> AT+MGPSNMEA
+MGPSNMEA:
 $GPGGA,,,,,,0,,,,,,,,*66
 $GPRMC,,V,,,,,,,,,,N*53
OK
UserDevice> AT+MMSVRCELL
+MMSRVCELL:
 "servingcell","NOCONN","LTE","FDD",311,480,34F0C16,214,2300,4,5,5,D806,-78,-9,-49,14,-
OK
UserDevice> AT+MMNEBCELL
+MGPSNMEA:
 $GPGGA,,,,,,0,,,,,,,,*66
 $GPRMC,,V,,,,,,,,,,N*53
OK
UserDevice> AT+MMSVRCELL
+MMSRVCELL:
 "servingcell","NOCONN","LTE","FDD",311,480,34F0C16,214,2300,4,5,5,D806,-77,-9,-48,15,-
OK
UserDevice> AT+MGPSNMEA
+MGPSNMEA:
 $GPGGA,,,,,,0,,,,,,,,*66
 $GPRMC,,V,,,,,,,,,,N*53
OK
UserDevice> AT+MMSVRCELL
+MMSRVCELL:
 "servingcell","NOCONN","LTE","FDD",311,480,34F0C16,214,2300,4,5,5,D806,-76,-7,-48,16,-
OK
UserDevice> AT+MGPSNMEA
+MGPSNMEA:
 $GPGGA,,,,,,0,,,,,,,,*66
 $GPRMC,,V,,,,,,,,,,N*53
OK
UserDevice> +MMSRVCELL:
 "servingcell","NOCONN","LTE","FDD",311,480,34F0C16,214,2300,4,5,5,D806,-78,-9,-48,14,-
OK
UserDevice> AT+MMNEBCELL
AT+MGPSNMEA
+MGPSNMEA:
 $GPGGA,,,,,,0,,,,,,,,*66
 $GPRMC,,V,,,,,,,,,,N*53
OK
UserDevice> AT+MMSVRCELL
+MMSRVCELL:
 "servingcell","NOCONN","LTE","FDD",311,480,34F0C16,214,2300,4,5,5,D806,-71,-10,-40,15,-
OK
UserDevice> +MGPSNMEA:
 $GPGGA,202250.00,3857.218967,N,09515.579386,W,1,05,1.1,304.5,M,-32.0,M,,*56
 $GPRMC,202250.00,A,3857.218967,N,09515.579386,W,12.6,103.7,301123,2.5,E,A,V*6B
OK
UserDevice> AT+MGPSNMEA
+MGPSNMEA:
 $GPGGA,202251.00,3857.220626,N,09515.577307,W,1,05,1.1,304.7,M,-32.0,M,,*53
 $GPRMC,202251.00,A,3857.220626,N,09515.577307,W,12.1,103.4,301123,2.5,E,A,V*68
OK
AT+MMSVRCELL
+MMSRVCELL:
 "servingcell","NOCONN","LTE","FDD",311,480,34F0C16,214,2300,4,5,5,D806,-62,-9,-32,16,-
OK
UserDevice> AT+MGPSNMEA
+MGPSNMEA:
 $GPGGA,202254.00,3857.218873,N,09515.564667,W,1,03,1.4,305.1,M,-32.0,M,,*56
 $GPRMC,202254.00,A,3857.218873,N,09515.564667,W,12.6,95.0,301123,2.5,E,A,V*54
OK
UserDevice> AT+MMSVRCELL
+MMSRVCELL:
 "servingcell","NOCONN","LTE","FDD",311,480,34F0C16,214,2300,4,5,5,D806,-63,-10,-33,16,-
OK
UserDevice> AT+MGPSNMEA
+MGPSNMEA:
 $GPGGA,202258.00,3857.231702,N,09515.541771,W,1,02,2.3,304.8,M,-32.0,M,,*54
 $GPRMC,202258.00,A,3857.231702,N,09515.541771,W,15.9,68.7,301123,2.5,E,A,V*56
OK
UserDevice> AT+MGPSNMEA
+MMSRVCELL:
 "servingcell","NOCONN","LTE","FDD",311,480,34F0C16,214,2300,4,5,5,D806,-67,-9,-38,16,-
OK
UserDevice> AT+MGPSNMEA
+MGPSNMEA:
 $GPGGA,,,,,,0,,,,,,,,*66
 $GPRMC,,V,,,,,,,,,,N*53
OK
UserDevice> AT+MMSVRCELL
+MMSRVCELL:
 "servingcell","NOCONN","LTE","FDD",311,480,34F0C16,214,2300,4,5,5,D806,-68,-9,-38,15,-
OK
UserDevice> AT+MGPSNMEA
+MGPSNMEA:
 $GPGGA,,,,,,0,,,,,,,,*66
 $GPRMC,,V,,,,,,,,,,N*53
OK
UserDevice> AT+MMSVRCELL
+MMSRVCELL:
 "servingcell","NOCONN","LTE","FDD",311,480,34F0C16,214,2300,4,5,5,D806,-67,-8,-38,17,-
OK
UserDevice> AT+MGPSNMEA
+MGPSNMEA:
 $GPGGA,,,,,,0,,,,,,,,*66
 $GPRMC,,V,,,,,,,,,,N*53
OK
UserDevice> AT+MMSVRCELL
+MMSRVCELL:
 "servingcell","NOCONN","LTE","FDD",311,480,34F0C16,214,2300,4,5,5,D806,-73,-9,-45,15,-
OK
UserDevice> AT+MGPSNMEA
+MGPSNMEA:
 $GPGGA,,,,,,0,,,,,,,,*66
 $GPRMC,,V,,,,,,,,,,N*53
OK
UserDevice> AT+MMSVRCELL
+MMSRVCELL:
 "servingcell","NOCONN","LTE","FDD",311,480,34F0C16,214,2300,4,5,5,D806,-78,-10,-46,12,-
OK
UserDevice> AT+MMNEBCELL
+MGPSNMEA:
 $GPGGA,,,,,,0,,,,,,,,*66
 $GPRMC,,V,,,,,,,,,,N*53
OK
UserDevice> AT+MMSVRCELL
+MMSRVCELL:
 "servingcell","NOCONN","LTE","FDD",311,480,34F0C16,214,2300,4,5,5,D806,-81,-12,-48,11,-
OK
UserDevice> AT+MGPSNMEA
+MGPSNMEA:
 $GPGGA,,,,,,0,,,,,,,,*66
 $GPRMC,,V,,,,,,,,,,N*53
OK
UserDevice> AT+MMSVRCELL
+MMSRVCELL:
 "servingcell","NOCONN","LTE","FDD",311,480,34F0C16,214,2300,4,5,5,D806,-88,-12,-56,11,-
OK
UserDevice> AT+MGPSNMEA
+MGPSNMEA:
 $GPGGA,202327.00,3857.165560,N,09515.485088,W,1,06,1.0,301.4,M,-32.0,M,,*5C
 $GPRMC,202327.00,A,3857.165560,N,09515.485088,W,19.4,160.0,301123,2.5,E,A,V*6C
OK
UserDevice> +MMSRVCELL:
 "servingcell","NOCONN","LTE","FDD",311,480,34C1A20,260,2300,4,5,5,D806,-85,-14,-51,11,-
OK
UserDevice> AT+MMNEBCELL
AT+MGPSNMEA
+MGPSNMEA:
 $GPGGA,202332.00,3857.141922,N,09515.463112,W,1,06,1.0,305.8,M,-32.0,M,,*56
 $GPRMC,202332.00,A,3857.141922,N,09515.463112,W,19.2,147.4,301123,2.5,E,A,V*69
OK
UserDevice> AT+MMSVRCELL
+MMSRVCELL:
 "servingcell","NOCONN","LTE","FDD",311,480,34C1A20,260,2300,4,5,5,D806,-84,-15,-48,10,-
OK
UserDevice> AT+MGPSNMEA
+MGPSNMEA:
 $GPGGA,202336.00,3857.129331,N,09515.444371,W,1,06,1.0,296.3,M,-32.0,M,,*56
 $GPRMC,202336.00,A,3857.129331,N,09515.444371,W,20.5,136.8,301123,2.5,E,A,V*6E
OK
UserDevice> AT+MMSVRCELL
+MMSRVCELL:
 "servingcell","NOCONN","LTE","FDD",311,480,34D8720,278,2300,4,5,5,D806,-82,-15,-47,12,-
OK
UserDevice> AT+MGPSNMEA
+MGPSNMEA:
 $GPGGA,202340.00,3857.116285,N,09515.424201,W,1,06,1.0,292.6,M,-32.0,M,,*54
 $GPRMC,202340.00,A,3857.116285,N,09515.424201,W,19.0,126.0,301123,2.5,E,A,V*6B
OK
UserDevice> AT+MMSVRCELL
+MMSRVCELL:
 "servingcell","NOCONN","LTE","FDD",311,480,34D8720,278,2300,4,5,5,D806,-82,-15,-47,13,-
OK
UserDevice> AT+MGPSNMEA
+MGPSNMEA:
 $GPGGA,202344.00,3857.107557,N,09515.404944,W,1,06,1.0,289.5,M,-32.0,M,,*59
 $GPRMC,202344.00,A,3857.107557,N,09515.404944,W,14.6,118.3,301123,2.5,E,A,V*6A
OK
UserDevice> AT+MMSVRCELL
+MMSRVCELL:
 "servingcell","NOCONN","LTE","FDD",311,480,34D8720,278,2300,4,5,5,D806,-85,-13,-51,11,-
OK
UserDevice> AT+MGPSNMEA
+MGPSNMEA:
 $GPGGA,202348.00,3857.100885,N,09515.394429,W,1,05,1.6,284.8,M,-32.0,M,,*5D
 $GPRMC,202348.00,A,3857.100885,N,09515.394429,W,7.8,124.4,301123,2.5,E,A,V*5F
OK
UserDevice> AT+MMSVRCELL
+MMSRVCELL:
 "servingcell","NOCONN","LTE","FDD",311,480,34D8720,278,2300,4,5,5,D806,-85,-15,-49,11,-
OK
UserDevice> AT+MGPSNMEA
+MGPSNMEA:
 $GPGGA,202352.00,3857.094147,N,09515.389102,W,1,05,1.1,283.1,M,-32.0,M,,*54
 $GPRMC,202352.00,A,3857.094147,N,09515.389102,W,6.3,153.6,301123,2.5,E,A,V*57
OK
UserDevice> AT+MMSVRCELL
+MMSRVCELL:
 "servingcell","NOCONN","LTE","FDD",311,480,34D8720,278,2300,4,5,5,D806,-84,-14,-53,14,-
OK
UserDevice> AT+MGPSNMEA
+MGPSNMEA:
 $GPGGA,202356.00,3857.096617,N,09515.392141,W,1,06,1.2,281.8,M,-32.0,M,,*56
 $GPRMC,202356.00,A,3857.096617,N,09515.392141,W,0.0,153.6,301123,2.5,E,A,V*5B
OK
UserDevice> AT+MMSVRCELL
+MMSRVCELL:
 "servingcell","NOCONN","LTE","FDD",311,480,34D8720,278,2300,4,5,5,D806,-84,-15,-48,13,-
OK
UserDevice> AT+MGPSNMEA
+MGPSNMEA:
 $GPGGA,202400.00,3857.096209,N,09515.392200,W,1,06,1.3,281.8,M,-32.0,M,,*5E
 $GPRMC,202400.00,A,3857.096209,N,09515.392200,W,0.0,153.6,301123,2.5,E,A,V*52
OK
UserDevice> AT+MMSVRCELL
+MMSRVCELL:
 "servingcell","NOCONN","LTE","FDD",311,480,34D8720,278,2300,4,5,5,D806,-81,-11,-49,13,-
OK
UserDevice> AT+MGPSNMEA
+MGPSNMEA:
 $GPGGA,202404.00,3857.096253,N,09515.392167,W,1,06,1.3,281.9,M,-32.0,M,,*56
 $GPRMC,202404.00,A,3857.096253,N,09515.392167,W,0.0,153.6,301123,2.5,E,A,V*5B
OK
UserDevice> AT+MMSVRCELL
+MMSRVCELL:
 "servingcell","NOCONN","LTE","FDD",311,480,34D8720,278,2300,4,5,5,D806,-87,-14,-51,11,-
OK
UserDevice> AT+MGPSNMEA
+MGPSNMEA:
 $GPGGA,202409.00,3857.096445,N,09515.392096,W,1,06,1.3,281.9,M,-32.0,M,,*55
 $GPRMC,202409.00,A,3857.096445,N,09515.392096,W,0.0,153.6,301123,2.5,E,A,V*58
OK
UserDevice> AT+MMSVRCELL
+MMSRVCELL:
 "servingcell","NOCONN","LTE","FDD",311,480,34D8720,278,2300,4,5,5,D806,-89,-18,-50,9,-
OK
UserDevice> AT+MGPSNMEA
+MGPSNMEA:
 $GPGGA,202413.00,3857.090752,N,09515.378497,W,1,06,1.0,282.2,M,-32.0,M,,*57
 $GPRMC,202413.00,A,3857.090752,N,09515.378497,W,5.4,122.4,301123,2.5,E,A,V*54
OK
UserDevice> AT+MMSVRCELL
+MMSRVCELL:
 "servingcell","NOCONN","LTE","FDD",311,480,34D8720,278,2300,4,5,5,D806,-83,-13,-49,10,-
OK
UserDevice> AT+MMNEBCELL
+MGPSNMEA:
 $GPGGA,202417.00,3857.082875,N,09515.368909,W,1,06,1.0,286.1,M,-32.0,M,,*56
 $GPRMC,202417.00,A,3857.082875,N,09515.368909,W,9.1,152.1,301123,2.5,E,A,V*59
OK
UserDevice> AT+MMSVRCELL
+MMSRVCELL:
 "servingcell","NOCONN","LTE","FDD",311,480,34D8720,278,2300,4,5,5,D806,-82,-11,-50,13,-
OK
UserDevice> AT+MGPSNMEA
+MGPSNMEA:
 $GPGGA,202421.00,3857.075510,N,09515.362202,W,1,07,0.9,288.5,M,-32.0,M,,*5C
 $GPRMC,202421.00,A,3857.075510,N,09515.362202,W,8.9,142.1,301123,2.5,E,A,V*58
OK
UserDevice> AT+MMSVRCELL
+MMSRVCELL:
 "servingcell","NOCONN","LTE","FDD",311,480,34D8720,278,2300,4,5,5,D806,-78,-14,-42,14,-
OK
UserDevice> AT+MGPSNMEA
+MGPSNMEA:
 $GPGGA,202425.00,3857.073913,N,09515.340710,W,1,07,0.9,289.6,M,-32.0,M,,*55
 $GPRMC,202425.00,A,3857.073913,N,09515.340710,W,11.1,98.8,301123,2.5,E,A,V*5C
OK
UserDevice> +MMSRVCELL:
 "servingcell","NOCONN","LTE","FDD",311,480,34D8720,278,2300,4,5,5,D806,-82,-12,-48,14,-
OK
UserDevice> AT+MMNEBCELL
AT+MGPSNMEA
+MGPSNMEA:
 $GPGGA,202429.00,3857.081985,N,09515.322087,W,1,06,1.0,284.1,M,-32.0,M,,*55
 $GPRMC,202429.00,A,3857.081985,N,09515.322087,W,12.2,77.5,301123,2.5,E,A,V*53
OK
UserDevice> AT+MMSVRCELL
+MMSRVCELL:
 "servingcell","NOCONN","LTE","FDD",311,480,34D8720,278,2300,4,5,5,D806,-85,-14,-51,13,-
OK
UserDevice> UserDevice> AT+MMSVRCELL
+MMSRVCELL:
 "servingcell","NOCONN","LTE","FDD",311,480,34D8720,278,2300,4,5,5,D806,-89,-13,-56,11,-
OK
UserDevice> AT+MGPSNMEA
+MGPSNMEA:
 $GPGGA,202438.00,3857.083205,N,09515.264060,W,1,06,1.0,281.6,M,-32.0,M,,*5C
 $GPRMC,202438.00,A,3857.083205,N,09515.264060,W,20.4,90.4,301123,2.5,E,A,V*57
OK
UserDevice> AT+MMSVRCELL
+MMSRVCELL:
 "servingcell","NOCONN","LTE","FDD",311,480,34D8720,278,2300,4,5,5,D806,-88,-15,-53,11,-
OK
UserDevice> AT+MGPSNMEA
+MGPSNMEA:
 $GPGGA,202442.00,3857.077168,N,09515.229366,W,1,06,0.9,284.0,M,-32.0,M,,*55
 $GPRMC,202442.00,A,3857.077168,N,09515.229366,W,22.9,97.1,301123,2.5,E,A,V*58
OK
UserDevice> AT+MMSVRCELL
+MMSRVCELL:
 "servingcell","NOCONN","LTE","FDD",311,480,34D8720,278,2300,4,5,5,D806,-83,-10,-54,14,-
OK
UserDevice> AT+MGPSNMEA
+MGPSNMEA:
 $GPGGA,202446.00,3857.080644,N,09515.200473,W,1,06,1.1,285.9,M,-32.0,M,,*59
 $GPRMC,202446.00,A,3857.080644,N,09515.200473,W,17.7,85.3,301123,2.5,E,A,V*5C
OK
UserDevice> AT+MMSVRCELL
+MMSRVCELL:
 "servingcell","NOCONN","LTE","FDD",311,480,34D8720,278,2300,4,5,5,D806,-65,-10,-34,21,-
OK
UserDevice> AT+MGPSNMEA
+MGPSNMEA:
 $GPGGA,202450.00,3857.080996,N,09515.175094,W,1,06,1.1,286.2,M,-32.0,M,,*5A
 $GPRMC,202450.00,A,3857.080996,N,09515.175094,W,17.6,83.5,301123,2.4,E,A,V*57
OK
UserDevice> AT+MMSVRCELL
+MMSRVCELL:
 "servingcell","NOCONN","LTE","FDD",311,480,34D8720,278,2300,4,5,5,D806,-64,-11,-32,21,-
OK
UserDevice> AT+MGPSNMEA
+MGPSNMEA:
 $GPGGA,202454.00,3857.069505,N,09515.158282,W,1,04,1.2,286.8,M,-32.0,M,,*5E
 $GPRMC,202454.00,A,3857.069505,N,09515.158282,W,14.1,121.4,301123,2.4,E,A,V*64
OK
UserDevice> AT+MMSVRCELL
+MMSRVCELL:
 "servingcell","NOCONN","LTE","FDD",311,480,34D8720,278,2300,4,5,5,D806,-63,-7,-36,23,-
OK
UserDevice> AT+MGPSNMEA
+MGPSNMEA:
 $GPGGA,202458.00,3857.074558,N,09515.161501,W,1,04,1.2,288.3,M,-32.0,M,,*55
 $GPRMC,202458.00,A,3857.074558,N,09515.161501,W,0.3,43.8,301123,2.4,E,A,V*64
OK
UserDevice> AT+MMSVRCELL
+MMSRVCELL:
 "servingcell","NOCONN","LTE","FDD",311,480,34D8720,278,2300,4,5,5,D806,-64,-8,-35,23,-
OK
UserDevice> AT+MGPSNMEA
+MGPSNMEA:
 $GPGGA,202502.00,3857.077264,N,09515.167874,W,1,03,1.2,287.0,M,-32.0,M,,*52
 $GPRMC,202502.00,A,3857.077264,N,09515.167874,W,0.0,43.0,301123,2.4,E,A,V*63
OK
UserDevice> AT+MMSVRCELL
+MMSRVCELL:
 "servingcell","NOCONN","LTE","FDD",311,480,34D8720,278,2300,4,5,5,D806,-64,-12,-31,22,-
OK
UserDevice> AT+MGPSNMEA
+MGPSNMEA:
 $GPGGA,202506.00,3857.078336,N,09515.168047,W,1,03,1.2,289.0,M,-32.0,M,,*56
 $GPRMC,202506.00,A,3857.078336,N,09515.168047,W,0.0,43.0,301123,2.4,E,A,V*69
OK
UserDevice> AT+MMSVRCELL
+MMSRVCELL:
 "servingcell","NOCONN","LTE","FDD",311,480,34D8720,278,2300,4,5,5,D806,-64,-12,-28,20,-
OK
UserDevice> AT+MGPSNMEA
+MGPSNMEA:
 $GPGGA,202510.00,3857.078311,N,09515.167477,W,1,05,1.2,289.2,M,-32.0,M,,*58
 $GPRMC,202510.00,A,3857.078311,N,09515.167477,W,0.0,43.0,301123,2.4,E,A,V*63
OK
UserDevice> AT+MMSVRCELL
+MMSRVCELL:
 "servingcell","NOCONN","LTE","FDD",311,480,34D8720,278,2300,4,5,5,D806,-69,-12,-36,18,-
OK
UserDevice> AT+MMNEBCELL
+MGPSNMEA:
 $GPGGA,202515.00,3857.076664,N,09515.152377,W,1,05,1.1,284.4,M,-32.0,M,,*5D
 $GPRMC,202515.00,A,3857.076664,N,09515.152377,W,14.4,92.6,301123,2.4,E,A,V*55
OK
UserDevice> AT+MMSVRCELL
+MMSRVCELL:
 "servingcell","NOCONN","LTE","FDD",311,480,34D8720,278,2300,4,5,5,D806,-74,-13,-37,18,-
OK
UserDevice> AT+MGPSNMEA
+MGPSNMEA:
 $GPGGA,202519.00,3857.075714,N,09515.128838,W,1,05,1.1,287.2,M,-32.0,M,,*5C
 $GPRMC,202519.00,A,3857.075714,N,09515.128838,W,11.5,82.8,301123,2.4,E,A,V*5A
OK
UserDevice> AT+MMSVRCELL
+MMSRVCELL:
 "servingcell","NOCONN","LTE","FDD",311,480,34D8720,278,2300,4,5,5,D806,-70,-13,-33,20,-
OK
UserDevice> AT+MGPSNMEA
+MGPSNMEA:
 $GPGGA,202523.00,3857.076338,N,09515.112498,W,1,04,1.1,287.1,M,-32.0,M,,*51
 $GPRMC,202523.00,A,3857.076338,N,09515.112498,W,11.6,99.5,301123,2.4,E,A,V*51
OK
UserDevice> +MMSRVCELL:
 "servingcell","NOCONN","LTE","FDD",311,480,34D8720,278,2300,4,5,5,D806,-74,-12,-42,19,-
OK
UserDevice> AT+MMNEBCELL
AT+MGPSNMEA
+MGPSNMEA:
 $GPGGA,202527.00,3857.075096,N,09515.098651,W,1,04,1.1,286.7,M,-32.0,M,,*52
 $GPRMC,202527.00,A,3857.075096,N,09515.098651,W,5.7,114.2,301123,2.4,E,A,V*52
OK
UserDevice> AT+MMSVRCELL
+MMSRVCELL:
 "servingcell","NOCONN","LTE","FDD",311,480,34D8720,278,2300,4,5,5,D806,-74,-12,-40,18,-
OK
UserDevice> AT+MGPSNMEA
+MGPSNMEA:
 $GPGGA,202531.00,3857.078621,N,09515.098282,W,1,03,1.2,289.4,M,-32.0,M,,*50
 $GPRMC,202531.00,A,3857.078621,N,09515.098282,W,1.0,355.3,301123,2.4,E,A,V*5D
OK
UserDevice> AT+MMSVRCELL
+MMSRVCELL:
 "servingcell","NOCONN","LTE","FDD",311,480,34D8720,278,2300,4,5,5,D806,-74,-14,-40,19,-
OK
UserDevice> AT+MGPSNMEA
+MGPSNMEA:
 $GPGGA,202535.00,3857.077892,N,09515.095250,W,1,03,1.2,290.2,M,-32.0,M,,*51
 $GPRMC,202535.00,A,3857.077892,N,09515.095250,W,0.0,311.0,301123,2.4,E,A,V*50
OK
UserDevice> AT+MMSVRCELL
+MMSRVCELL:
 "servingcell","NOCONN","LTE","FDD",311,480,34D8720,278,2300,4,5,5,D806,-74,-13,-40,19,-
OK
UserDevice> AT+MGPSNMEA
+MGPSNMEA:
 $GPGGA,202539.00,3857.076942,N,09515.093983,W,1,03,1.4,289.4,M,-32.0,M,,*5B
 $GPRMC,202539.00,A,3857.076942,N,09515.093983,W,0.0,311.0,301123,2.4,E,A,V*52
OK
UserDevice> AT+MGPSNMEA
+MGPSNMEA:
 $GPGGA,202541.00,3857.076812,N,09515.093170,W,1,03,1.4,287.1,M,-32.0,M,,*5F
 $GPRMC,202541.00,A,3857.076812,N,09515.093170,W,0.0,311.0,301123,2.4,E,A,V*5D
OK
AT+MMSVRCELL
+MMSRVCELL:
 "servingcell","NOCONN","LTE","FDD",311,480,34D8720,278,2300,4,5,5,D806,-74,-13,-41,19,-
OK
UserDevice> AT+MGPSNMEA
+MGPSNMEA:
 $GPGGA,202544.00,3857.077418,N,09515.092405,W,1,04,1.1,286.2,M,-32.0,M,,*5B
 $GPRMC,202544.00,A,3857.077418,N,09515.092405,W,0.0,311.0,301123,2.4,E,A,V*59
OK
UserDevice> AT+MMSVRCELL
+MMSRVCELL:
 "servingcell","NOCONN","LTE","FDD",311,480,34D8720,278,2300,4,5,5,D806,-74,-13,-41,19,-
OK
UserDevice> AT+MGPSNMEA
+MGPSNMEA:
 $GPGGA,202548.00,3857.078818,N,09515.092325,W,1,04,1.1,283.7,M,-32.0,M,,*51
 $GPRMC,202548.00,A,3857.078818,N,09515.092325,W,0.0,311.0,301123,2.4,E,A,V*53
OK
UserDevice> AT+MMSVRCELL
+MMSRVCELL:
 "servingcell","NOCONN","LTE","FDD",311,480,34D8720,278,2300,4,5,5,D806,-73,-13,-39,20,-
OK
UserDevice> AT+MGPSNMEA
+MGPSNMEA:
 $GPGGA,202552.00,3857.079446,N,09515.092121,W,1,03,1.2,282.7,M,-32.0,M,,*5F
 $GPRMC,202552.00,A,3857.079446,N,09515.092121,W,0.0,311.0,301123,2.4,E,A,V*58
OK
UserDevice> AT+MMSVRCELL
+MMSRVCELL:
 "servingcell","NOCONN","LTE","FDD",311,480,34D8720,278,2300,4,5,5,D806,-73,-13,-39,18,-
OK
UserDevice> AT+MGPSNMEA
+MGPSNMEA:
 $GPGGA,202556.00,3857.079491,N,09515.092101,W,1,02,1.7,282.7,M,-32.0,M,,*57
 $GPRMC,202556.00,A,3857.079491,N,09515.092101,W,0.0,311.0,301123,2.4,E,A,V*54
OK
UserDevice> AT+MGPSNMEA
+MMSRVCELL:
 "servingcell","NOCONN","LTE","FDD",311,480,34D8720,278,2300,4,5,5,D806,-71,-14,-36,18,-
OK
UserDevice> AT+MMNEBCELL
+MGPSNMEA:
 $GPGGA,,,,,,0,,,,,,,,*66
 $GPRMC,,V,,,,,,,,,,N*53
OK
UserDevice> AT+MMSVRCELL
+MMSRVCELL:
 "servingcell","NOCONN","LTE","FDD",311,480,34D8720,278,2300,4,5,5,D806,-68,-13,-33,20,-
OK
UserDevice> AT+MGPSNMEA
+MGPSNMEA:
 $GPGGA,,,,,,0,,,,,,,,*66
 $GPRMC,,V,,,,,,,,,,N*53
OK
UserDevice> AT+MMSVRCELL
+MMSRVCELL:
 "servingcell","NOCONN","LTE","FDD",311,480,34D8720,278,2300,4,5,5,D806,-68,-12,-36,20,-
OK
UserDevice> AT+MGPSNMEA
+MGPSNMEA:
 $GPGGA,,,,,,0,,,,,,,,*66
 $GPRMC,,V,,,,,,,,,,N*53
OK
UserDevice> +MMSRVCELL:
 "servingcell","NOCONN","LTE","FDD",311,480,34D8720,278,2300,4,5,5,D806,-70,-9,-40,18,-
OK
UserDevice> AT+MMNEBCELL
AT+MGPSNMEA
+MGPSNMEA:
 $GPGGA,202613.00,3857.079486,N,09515.092098,W,1,03,1.3,282.9,M,-32.0,M,,*59
 $GPRMC,202613.00,A,3857.079486,N,09515.092098,W,0.0,311.0,301123,2.4,E,A,V*51
OK
UserDevice> AT+MMSVRCELL
+MMSRVCELL:
 "servingcell","NOCONN","LTE","FDD",311,480,34D8720,278,2300,4,5,5,D806,-70,-11,-38,18,-
OK
UserDevice> AT+MGPSNMEA
+MGPSNMEA:
 $GPGGA,202617.00,3857.079475,N,09515.092093,W,1,03,1.5,282.8,M,-32.0,M,,*5D
 $GPRMC,202617.00,A,3857.079475,N,09515.092093,W,0.0,311.0,301123,2.4,E,A,V*52
OK
UserDevice> AT+MMSVRCELL
+MMSRVCELL:
 "servingcell","NOCONN","LTE","FDD",311,480,34D8720,278,2300,4,5,5,D806,-69,-11,-38,20,-
OK
UserDevice> AT+MGPSNMEA
+MGPSNMEA:
 $GPGGA,202622.00,3857.079474,N,09515.092094,W,1,03,2.5,283.0,M,-32.0,M,,*57
 $GPRMC,202622.00,A,3857.079474,N,09515.092094,W,0.0,311.0,301123,2.4,E,A,V*52
OK
UserDevice> AT+MMSVRCELL
+MMSRVCELL:
 "servingcell","NOCONN","LTE","FDD",311,480,34D8720,278,2300,4,5,5,D806,-68,-13,-35,20,-
OK
UserDevice> AT+MGPSNMEA
+MGPSNMEA:
 $GPGGA,202626.00,3857.079461,N,09515.092078,W,1,02,2.2,283.2,M,-32.0,M,,*51
 $GPRMC,202626.00,A,3857.079461,N,09515.092078,W,0.0,311.0,301123,2.4,E,A,V*50
OK
UserDevice> AT+MMSVRCELL
+MMSRVCELL:
 "servingcell","NOCONN","LTE","FDD",311,480,34D8720,278,2300,4,5,5,D806,-73,-12,-40,16,-
OK
UserDevice> AT+MGPSNMEA
+MGPSNMEA:
 $GPGGA,202630.00,3857.079457,N,09515.092073,W,1,02,2.2,283.3,M,-32.0,M,,*59
 $GPRMC,202630.00,A,3857.079457,N,09515.092073,W,0.0,311.0,301123,2.4,E,A,V*59
OK
UserDevice> AT+MMSVRCELL
+MMSRVCELL:
 "servingcell","NOCONN","LTE","FDD",311,480,34D8720,278,2300,4,5,5,D806,-78,-14,-44,16,-
OK
UserDevice> AT+MGPSNMEA
+MGPSNMEA:
 $GPGGA,202634.00,3857.079458,N,09515.092072,W,1,03,2.1,283.2,M,-32.0,M,,*50
 $GPRMC,202634.00,A,3857.079458,N,09515.092072,W,0.0,311.0,301123,2.4,E,A,V*53
OK
UserDevice> AT+MMSVRCELL
+MMSRVCELL:
 "servingcell","NOCONN","LTE","FDD",311,480,34D8720,278,2300,4,5,5,D806,-73,-13,-39,17,-
OK
UserDevice> AT+MGPSNMEA
+MGPSNMEA:
 $GPGGA,202638.00,3857.079456,N,09515.092071,W,1,03,2.1,282.9,M,-32.0,M,,*5B
 $GPRMC,202638.00,A,3857.079456,N,09515.092071,W,0.0,311.0,301123,2.4,E,A,V*52
OK
UserDevice> AT+MMSVRCELL
+MMSRVCELL:
 "servingcell","NOCONN","LTE","FDD",311,480,34D8720,278,2300,4,5,5,D806,-72,-11,-40,16,-
OK
UserDevice> AT+MGPSNMEA
+MGPSNMEA:
 $GPGGA,202642.00,3857.079455,N,09515.092071,W,1,03,2.5,282.9,M,-32.0,M,,*51
 $GPRMC,202642.00,A,3857.079455,N,09515.092071,W,0.0,311.0,301123,2.4,E,A,V*5C
OK
UserDevice> AT+MMSVRCELL
+MMSRVCELL:
 "servingcell","NOCONN","LTE","FDD",311,480,34D8720,278,2300,4,5,5,D806,-71,-11,-39,17,-
OK
UserDevice> AT+MGPSNMEA
+MGPSNMEA:
 $GPGGA,202646.00,3857.079455,N,09515.092070,W,1,03,3.0,283.1,M,-32.0,M,,*59
 $GPRMC,202646.00,A,3857.079455,N,09515.092070,W,0.0,311.0,301123,2.4,E,A,V*59
OK
UserDevice> AT+MMSVRCELL
+MMSRVCELL:
 "servingcell","NOCONN","LTE","FDD",311,480,34D8720,278,2300,4,5,5,D806,-71,-15,-35,16,-
OK
UserDevice> AT+MGPSNMEA
+MGPSNMEA:
 $GPGGA,,,,,,0,,,,,,,,*66
 $GPRMC,,V,,,,,,,,,,N*53
OK
UserDevice> AT+MMSVRCELL
+MMSRVCELL:
 "servingcell","NOCONN","LTE","FDD",311,480,34D8720,278,2300,4,5,5,D806,-72,-13,-40,17,-
OK
UserDevice> AT+MGPSNMEA
+MGPSNMEA:
 $GPGGA,,,,,,0,,,,,,,,*66
 $GPRMC,,V,,,,,,,,,,N*53
OK
UserDevice> 
UserDevice login: admin
Password: 
Connected to 127.0.0.1

Entering character mode
Escape character is '^]'.

Command Line Interface
UserDevice> AT+MMSVRCELL
+MMSRVCELL:
 "servingcell","NOCONN","LTE","FDD",311,480,34D8716,277,2300,4,5,5,D806,-80,-14,-46,12,-
OK
UserDevice> AT+MMSVRCELL
+MMSRVCELL:
 "servingcell","NOCONN","LTE","FDD",311,480,34D8716,277,2300,4,5,5,D806,-80,-14,-45,13,-
OK
UserDevice> AT+MGPSNMEA
+MGPSNMEA:
 $GPGGA,,,,,,0,,,,,,,,*66
 $GPRMC,,V,,,,,,,,,,N*53
OK
UserDevice> AT+MMSVRCELL
+MMSRVCELL:
 "servingcell","NOCONN","LTE","FDD",311,480,34D8716,277,2300,4,5,5,D806,-85,-14,-50,11,-
OK
UserDevice> AT+MGPSNMEA
+MGPSNMEA:
 $GPGGA,,,,,,0,,,,,,,,*66
 $GPRMC,,V,,,,,,,,,,N*53
OK
UserDevice> AT+MMSVRCELL
+MMSRVCELL:
 "servingcell","NOCONN","LTE","FDD",311,480,34D8716,277,2300,4,5,5,D806,-77,-14,-41,11,-
OK
UserDevice> AT+MGPSNMEA
+MGPSNMEA:
 $GPGGA,202730.00,3857.079119,N,09514.984227,W,1,07,0.9,283.5,M,-32.0,M,,*51
 $GPRMC,202730.00,A,3857.079119,N,09514.984227,W,11.9,87.3,301123,2.4,E,A,V*5D
OK
UserDevice> AT+MMSVRCELL
+MMSRVCELL:
 "servingcell","NOCONN","LTE","FDD",311,480,34D8716,277,2300,4,5,5,D806,-77,-14,-43,14,48
OK
UserDevice> AT+MGPSNMEA
+MGPSNMEA:
 $GPGGA,202734.00,3857.078444,N,09514.967585,W,1,07,0.9,286.2,M,-32.0,M,,*59
 $GPRMC,202734.00,A,3857.078444,N,09514.967585,W,10.1,97.7,301123,2.4,E,A,V*5B
OK
UserDevice> AT+MMSVRCELL
+MMSRVCELL:
 "servingcell","NOCONN","LTE","FDD",311,480,34D8716,277,2300,4,5,5,D806,-81,-14,-46,12,45
OK
UserDevice> AT+MGPSNMEA
+MGPSNMEA:
 $GPGGA,202738.00,3857.077759,N,09514.954152,W,1,05,1.3,281.8,M,-32.0,M,,*5F
 $GPRMC,202738.00,A,3857.077759,N,09514.954152,W,9.4,92.8,301123,2.4,E,A,V*6E
OK
UserDevice> AT+MMSVRCELL
+MMSRVCELL:
 "servingcell","NOCONN","LTE","FDD",311,480,34D8716,277,2300,4,5,5,D806,-79,-14,-44,11,-
OK
UserDevice> AT+MGPSNMEA
+MGPSNMEA:
 $GPGGA,202742.00,3857.077342,N,09514.943850,W,1,04,1.4,280.1,M,-32.0,M,,*5F
 $GPRMC,202742.00,A,3857.077342,N,09514.943850,W,7.4,96.6,301123,2.4,E,A,V*64
OK
UserDevice> AT+MMSVRCELL
+MMSRVCELL:
 "servingcell","NOCONN","LTE","FDD",311,480,34D8716,277,2300,4,5,5,D806,-81,-14,-47,11,45
OK
UserDevice> AT+MGPSNMEA
+MGPSNMEA:
 $GPGGA,202747.00,3857.078336,N,09514.946344,W,1,06,1.0,282.0,M,-32.0,M,,*58
 $GPRMC,202747.00,A,3857.078336,N,09514.946344,W,0.0,91.7,301123,2.4,E,A,V*63
OK
UserDevice> AT+MMSVRCELL
+MMSRVCELL:
 "servingcell","NOCONN","LTE","FDD",311,480,34D8716,277,2300,4,5,5,D806,-85,-16,-48,9,-
OK
UserDevice> AT+MGPSNMEA
+MGPSNMEA:
 $GPGGA,202751.00,3857.079658,N,09514.946526,W,1,07,0.9,277.6,M,-32.0,M,,*54
 $GPRMC,202751.00,A,3857.079658,N,09514.946526,W,0.0,91.7,301123,2.4,E,A,V*6A
OK
UserDevice> AT+MMSVRCELL
+MMSRVCELL:
 "servingcell","NOCONN","LTE","FDD",311,480,34D8716,277,2300,4,5,5,D806,-73,-13,-37,13,-
OK
UserDevice> AT+MGPSNMEA
+MGPSNMEA:
 $GPGGA,202755.00,3857.080757,N,09514.944623,W,1,07,0.9,274.5,M,-32.0,M,,*5C
 $GPRMC,202755.00,A,3857.080757,N,09514.944623,W,5.5,25.3,301123,2.4,E,A,V*69
OK
UserDevice> AT+MMSVRCELL
+MMSRVCELL:
 "servingcell","NOCONN","LTE","FDD",311,480,34D8716,277,2300,4,5,5,D806,-81,-15,-45,9,-
OK
UserDevice> AT+MGPSNMEA
+MGPSNMEA:
 $GPGGA,202759.00,3857.096682,N,09514.944546,W,1,06,1.3,273.3,M,-32.0,M,,*55
 $GPRMC,202759.00,A,3857.096682,N,09514.944546,W,10.2,0.2,301123,2.4,E,A,V*6E
OK
UserDevice> AT+MMSVRCELL
+MMSRVCELL:
 "servingcell","NOCONN","LTE","FDD",311,480,34D8716,277,2300,4,5,5,D806,-84,-15,-48,0,0
OK
UserDevice> AT+MGPSNMEA
+MGPSNMEA:
 $GPGGA,202803.00,3857.107408,N,09514.944221,W,1,06,1.4,273.1,M,-32.0,M,,*5F
 $GPRMC,202803.00,A,3857.107408,N,09514.944221,W,9.3,2.0,301123,2.4,E,A,V*58
OK
UserDevice> AT+MMSVRCELL
+MMSRVCELL:
 "servingcell","NOCONN","LTE","FDD",311,480,34D8716,277,2300,4,5,5,D806,-87,-15,-52,11,-
OK
UserDevice> AT+MGPSNMEA
+MGPSNMEA:
 $GPGGA,202807.00,3857.119615,N,09514.941918,W,1,06,1.5,274.3,M,-32.0,M,,*5A
 $GPRMC,202807.00,A,3857.119615,N,09514.941918,W,8.8,8.4,301123,2.4,E,A,V*5D
OK
UserDevice> AT+MMSVRCELL
+MMSRVCELL:
 "servingcell","NOCONN","LTE","FDD",311,480,34D8716,277,2300,4,5,5,D806,-90,-17,-52,9,-
OK
UserDevice> AT+MGPSNMEA
+MGPSNMEA:
 $GPGGA,202811.00,3857.132343,N,09514.939991,W,1,05,1.1,272.1,M,-32.0,M,,*5F
 $GPRMC,202811.00,A,3857.132343,N,09514.939991,W,8.8,6.5,301123,2.4,E,A,V*54
OK
UserDevice> AT+MMSVRCELL
+MMSRVCELL:
 "servingcell","NOCONN","LTE","FDD",311,480,34D8716,277,2300,4,5,5,D806,-84,-15,-49,11,-
OK
UserDevice> AT+MGPSNMEA
+MGPSNMEA:
 $GPGGA,202815.00,3857.142578,N,09514.938097,W,1,03,2.2,269.5,M,-32.0,M,,*54
 $GPRMC,202815.00,A,3857.142578,N,09514.938097,W,5.3,4.7,301123,2.4,E,A,V*51
OK
UserDevice> AT+MMSVRCELL
+MMSRVCELL:
 "servingcell","NOCONN","LTE","FDD",311,480,34D8716,277,2300,4,5,5,D806,-85,-15,-49,10,-
OK
UserDevice> AT+MGPSNMEA
+MGPSNMEA:
 $GPGGA,202819.00,3857.144665,N,09514.933209,W,1,03,5.2,269.7,M,-32.0,M,,*5A
 $GPRMC,202819.00,A,3857.144665,N,09514.933209,W,2.8,42.3,301123,2.4,E,A,V*60
OK
UserDevice> AT+MMSVRCELL
+MMSRVCELL:
 "servingcell","NOCONN","LTE","FDD",311,480,34D8716,277,2300,4,5,5,D806,-86,-15,-49,11,-
OK
UserDevice> AT+MGPSNMEA
+MGPSNMEA:
 $GPGGA,202824.00,3857.144617,N,09514.912045,W,1,03,5.2,269.9,M,-32.0,M,,*56
 $GPRMC,202824.00,A,3857.144617,N,09514.912045,W,4.6,70.6,301123,2.4,E,A,V*6E
OK
UserDevice> AT+MMSVRCELL
+MMSRVCELL:
 "servingcell","NOCONN","LTE","FDD",311,480,34D8716,277,2300,4,5,5,D806,-84,-13,-49,12,-
OK
UserDevice> AT+MGPSNMEA
+MGPSNMEA:
 $GPGGA,202828.00,3857.145798,N,09514.912380,W,1,03,3.2,269.7,M,-32.0,M,,*5F
 $GPRMC,202828.00,A,3857.145798,N,09514.912380,W,2.7,76.6,301123,2.4,E,A,V*6E
OK
UserDevice> +MMSRVCELL:
 "servingcell","NOCONN","LTE","FDD",311,480,34D8716,277,2300,4,5,5,D806,-88,-16,-50,10,-
OK
UserDevice> AT+MMNEBCELL
AT+MGPSNMEA
+MGPSNMEA:
 $GPGGA,202832.00,3857.145751,N,09514.916841,W,1,03,5.2,270.7,M,-32.0,M,,*5D
 $GPRMC,202832.00,A,3857.145751,N,09514.916841,W,2.1,72.9,301123,2.4,E,A,V*6F
OK
UserDevice> AT+MMSVRCELL
+MMSRVCELL:
 "servingcell","NOCONN","LTE","FDD",311,480,34D8716,277,2300,4,5,5,D806,-89,-17,-50,8,-
OK
UserDevice> AT+MGPSNMEA
+MGPSNMEA:
 $GPGGA,202836.00,3857.148216,N,09514.921184,W,1,03,5.2,271.5,M,-32.0,M,,*55
 $GPRMC,202836.00,A,3857.148216,N,09514.921184,W,5.1,15.0,301123,2.4,E,A,V*6B
OK
UserDevice> AT+MMSVRCELL
+MMSRVCELL:
 "servingcell","NOCONN","LTE","FDD",311,480,34F0816,388,2300,4,5,5,D806,-87,-14,-53,10,-
OK
UserDevice> AT+MGPSNMEA
+MGPSNMEA:
 $GPGGA,,,,,,0,,,,,,,,*66
 $GPRMC,,V,,,,,,,,,,N*53
OK
UserDevice> AT+MMSVRCELL
+MMSRVCELL:
 "servingcell","NOCONN","LTE","FDD",311,480,34F0816,388,2300,4,5,5,D806,-86,-13,-53,10,-
OK
UserDevice> AT+MGPSNMEA
+MGPSNMEA:
 $GPGGA,202844.00,3857.171154,N,09514.921361,W,1,04,3.3,276.5,M,-32.0,M,,*51
 $GPRMC,202844.00,A,3857.171154,N,09514.921361,W,9.9,7.2,301123,2.4,E,A,V*5D
OK
UserDevice> AT+MMSVRCELL
+MMSRVCELL:
 "servingcell","NOCONN","LTE","FDD",311,480,34F0816,388,2300,4,5,5,D806,-80,-9,-50,16,41
OK
UserDevice> AT+MGPSNMEA
+MGPSNMEA:
 $GPGGA,202848.00,3857.183268,N,09514.918256,W,1,04,3.3,274.4,M,-32.0,M,,*50
 $GPRMC,202848.00,A,3857.183268,N,09514.918256,W,9.6,0.1,301123,2.4,E,A,V*54
OK
UserDevice> AT+MMSVRCELL
+MMSRVCELL:
 "servingcell","NOCONN","LTE","FDD",311,480,34F0816,388,2300,4,5,5,D806,-74,-7,-44,18,-
OK
UserDevice> AT+MGPSNMEA
+MGPSNMEA:
 $GPGGA,202852.00,3857.188359,N,09514.916825,W,1,04,3.3,273.4,M,-32.0,M,,*54
 $GPRMC,202852.00,A,3857.188359,N,09514.916825,W,3.9,354.4,301123,2.4,E,A,V*55
OK
UserDevice> AT+MMSVRCELL
+MMSRVCELL:
 "servingcell","NOCONN","LTE","FDD",311,480,34F0816,388,2300,4,5,5,D806,-76,-8,-46,18,-
OK
UserDevice> AT+MGPSNMEA
+MGPSNMEA:
 $GPGGA,202856.00,3857.188237,N,09514.914127,W,1,04,3.3,272.1,M,-32.0,M,,*54
 $GPRMC,202856.00,A,3857.188237,N,09514.914127,W,1.2,309.6,301123,2.4,E,A,V*52
OK
UserDevice> AT+MMSVRCELL
+MMSRVCELL:
 "servingcell","NOCONN","LTE","FDD",311,480,34F0816,388,2300,4,5,5,D806,-76,-8,-48,12,-
OK
UserDevice> AT+MGPSNMEA
+MGPSNMEA:
 $GPGGA,202901.00,3857.193258,N,09514.923221,W,1,04,3.3,270.7,M,-32.0,M,,*51
 $GPRMC,202901.00,A,3857.193258,N,09514.923221,W,4.3,339.5,301123,2.4,E,A,V*57
OK
UserDevice> AT+MMSVRCELL
+MMSRVCELL:
 "servingcell","NOCONN","LTE","FDD",311,480,34F0816,388,2300,4,5,5,D806,-82,-10,-50,12,-
OK
UserDevice> AT+MGPSNMEA
+MGPSNMEA:
 $GPGGA,202905.00,3857.197728,N,09514.926885,W,1,03,4.6,270.5,M,-32.0,M,,*55
 $GPRMC,202905.00,A,3857.197728,N,09514.926885,W,4.6,324.0,301123,2.4,E,A,V*58
OK
UserDevice> AT+MMSVRCELL
+MMSRVCELL:
 "servingcell","NOCONN","LTE","FDD",311,480,34F0816,388,2300,4,5,5,D806,-84,-12,-55,11,-
OK
UserDevice> AT+MGPSNMEA
+MGPSNMEA:
 $GPGGA,202909.00,3857.198923,N,09514.950135,W,1,03,4.7,271.7,M,-32.0,M,,*52
 $GPRMC,202909.00,A,3857.198923,N,09514.950135,W,8.8,298.3,301123,2.4,E,A,V*5A
OK
UserDevice> AT+MMSVRCELL
+MMSRVCELL:
 "servingcell","NOCONN","LTE","FDD",311,480,34F0816,388,2300,4,5,5,D806,-90,-15,-51,9,-
OK
UserDevice> AT+MGPSNMEA
+MGPSNMEA:
 $GPGGA,202913.00,3857.206767,N,09514.958943,W,1,04,3.2,270.3,M,-32.0,M,,*52
 $GPRMC,202913.00,A,3857.206767,N,09514.958943,W,9.3,304.3,301123,2.4,E,A,V*54
OK
UserDevice> AT+MMSVRCELL
+MMSRVCELL:
 "servingcell","NOCONN","LTE","FDD",311,480,34D8716,277,2300,4,5,5,D806,-90,-16,-54,9,-
OK
UserDevice> AT+MMNEBCELL
+MGPSNMEA:
 $GPGGA,202917.00,3857.213328,N,09514.969562,W,1,03,6.3,271.2,M,-32.0,M,,*53
 $GPRMC,202917.00,A,3857.213328,N,09514.969562,W,7.6,308.9,301123,2.4,E,A,V*5B
OK
UserDevice> AT+MMSVRCELL
+MMSRVCELL:
 "servingcell","NOCONN","LTE","FDD",311,480,34D8716,277,2300,4,5,5,D806,-89,-16,-53,9,-
OK
UserDevice> AT+MGPSNMEA
+MGPSNMEA:
 $GPGGA,202921.00,3857.202159,N,09514.966179,W,1,04,2.3,268.2,M,-32.0,M,,*58
 $GPRMC,202921.00,A,3857.202159,N,09514.966179,W,0.0,315.3,301123,2.4,E,A,V*5C
OK
UserDevice> AT+MMSVRCELL
+MMSRVCELL:
 "servingcell","NOCONN","LTE","FDD",311,480,34D8716,277,2300,4,5,5,D806,-90,-16,-53,9,-
OK
UserDevice> AT+MGPSNMEA
+MGPSNMEA:
 $GPGGA,202925.00,3857.200842,N,09514.970456,W,1,03,6.3,267.7,M,-32.0,M,,*5B
 $GPRMC,202925.00,A,3857.200842,N,09514.970456,W,0.6,72.6,301123,2.4,E,A,V*67
OK
UserDevice> AT+MGPSNMEA
+MMSRVCELL:
 "servingcell","NOCONN","LTE","FDD",311,480,34D8716,277,2300,4,5,5,D806,-90,-15,-53,9,-
OK
UserDevice> AT+MMNEBCELL
AT+MGPSNMEA
+MGPSNMEA:
 $GPGGA,,,,,,0,,,,,,,,*66
 $GPRMC,,V,,,,,,,,,,N*53
OK
UserDevice> AT+MMSVRCELL
+MMSRVCELL:
 "servingcell","NOCONN","LTE","FDD",311,480,34D8716,277,2300,4,5,5,D806,-88,-15,-52,9,-
OK
UserDevice> AT+MGPSNMEA
+MGPSNMEA:
 $GPGGA,,,,,,0,,,,,,,,*66
 $GPRMC,,V,,,,,,,,,,N*53
OK
UserDevice> AT+MMSVRCELL
+MMSRVCELL:
 "servingcell","NOCONN","LTE","FDD",311,480,34D8716,277,2300,4,5,5,D806,-88,-14,-53,11,-
OK
UserDevice> AT+MGPSNMEA
+MGPSNMEA:
 $GPGGA,202938.00,3857.204004,N,09514.979682,W,1,06,1.0,267.6,M,-32.0,M,,*5B
 $GPRMC,202938.00,A,3857.204004,N,09514.979682,W,3.1,239.8,301123,2.4,E,A,V*50
OK
UserDevice> AT+MMSVRCELL
+MMSRVCELL:
 "servingcell","NOCONN","LTE","FDD",311,480,34F0816,388,2300,4,5,5,D806,-83,-9,-53,15,-
OK
UserDevice> AT+MGPSNMEA
+MGPSNMEA:
 $GPGGA,202942.00,3857.204102,N,09514.985636,W,1,06,1.0,274.2,M,-32.0,M,,*5B
 $GPRMC,202942.00,A,3857.204102,N,09514.985636,W,3.9,268.5,301123,2.4,E,A,V*57
OK
UserDevice> AT+MMSVRCELL
+MMSRVCELL:
 "servingcell","NOCONN","LTE","FDD",311,480,34F0816,388,2300,4,5,5,D806,-89,-13,-56,11,-
OK
UserDevice> AT+MGPSNMEA
+MGPSNMEA:
 $GPGGA,202946.00,3857.206842,N,09514.992708,W,1,06,1.0,266.9,M,-32.0,M,,*52
 $GPRMC,202946.00,A,3857.206842,N,09514.992708,W,5.4,277.2,301123,2.4,E,A,V*54
OK
UserDevice> AT+MMSVRCELL
+MMSRVCELL:
 "servingcell","NOCONN","LTE","FDD",311,480,34F0816,388,2300,4,5,5,D806,-89,-13,-54,9,-
OK
UserDevice> AT+MGPSNMEA
+MGPSNMEA:
 $GPGGA,202950.00,3857.206532,N,09514.998849,W,1,08,0.8,264.6,M,-32.0,M,,*55
 $GPRMC,202950.00,A,3857.206532,N,09514.998849,W,3.7,266.7,301123,2.4,E,A,V*59
OK
UserDevice> AT+MMSVRCELL
+MMSRVCELL:
 "servingcell","NOCONN","LTE","FDD",311,480,34D8716,277,2300,4,5,5,D806,-91,-16,-54,9,-
OK
UserDevice> +MGPSNMEA:
 $GPGGA,202956.00,3857.205848,N,09515.001378,W,1,07,0.9,263.8,M,-32.0,M,,*56
 $GPRMC,202956.00,A,3857.205848,N,09515.001378,W,1.1,266.3,301123,2.4,E,A,V*5D
OK
UserDevice> AT+MMSVRCELL
+MMNEBCELL:
 "neighbourcell intra","LTE",2300,388,-8,-81,-53,0,-,-,-,-,-
 "neighbourcell intra","LTE",2300,277,-17,-91,-63,0,-,-,-,-,-
 "neighbourcell intra","LTE",2300,278,-20,-97,-63,0,-,-,-,-,-
OK
UserDevice> AT+MGPSNMEA
+MGPSNMEA:
 $GPGGA,203000.00,3857.205345,N,09515.003675,W,1,08,0.8,264.8,M,-32.0,M,,*58
 $GPRMC,203000.00,A,3857.205345,N,09515.003675,W,1.4,266.2,301123,2.4,E,A,V*5E
OK
+MGPSNMEA:
 $GPGGA,203002.00,3857.206194,N,09515.003967,W,1,08,0.8,269.1,M,-32.0,M,,*5F
 $GPRMC,203002.00,A,3857.206194,N,09515.003967,W,0.0,266.3,301123,2.4,E,A,V*59
OK
UserDevice> AT+MMSVRCELL
+MMNEBCELL:
 "neighbourcell intra","LTE",2300,388,-10,-84,-54,0,-,-,-,-,-
 "neighbourcell intra","LTE",2300,277,-18,-93,-66,0,-,-,-,-,-
 "neighbourcell intra","LTE",2300,278,-20,-97,-66,0,-,-,-,-,-
OK
UserDevice> AT+MGPSNMEA
+MGPSNMEA:
 $GPGGA,203006.00,3857.204851,N,09515.003561,W,1,08,0.8,267.4,M,-32.0,M,,*58
 $GPRMC,203006.00,A,3857.204851,N,09515.003561,W,0.0,266.3,301123,2.4,E,A,V*55
OK

UserDevice login: admin
Password: 
Connected to 127.0.0.1

Entering character mode
Escape character is '^]'.

Command Line Interface
UserDevice> AT+MMSVRCELL
+MMSRVCELL:
 "servingcell","NOCONN","LTE","FDD",311,480,34F0720,284,2300,4,5,5,D806,-87,-11,-56,12,-
OK
UserDevice> AT+MMSVRCELL
+MMSRVCELL:
 "servingcell","NOCONN","LTE","FDD",311,480,34F0720,284,2300,4,5,5,D806,-88,-10,-58,13,-
OK
UserDevice> AT+MMNEBCELL
+MMNEBCELL:
+MMNEBCELL:
 "neighbourcell intra","LTE",2300,388,-13,-90,-69,0,-,-,-,-,-
 "neighbourcell intra","LTE",2300,119,-20,-105,-71,0,-,-,-,-,-
 "neighbourcell intra","LTE",2300,277,-20,-98,-69,0,-,-,-,-,-
 "neighbourcell intra","LTE",2300,284,-12,-91,-57,0,-,-,-,-,-
 "neighbourcell intra","LTE",2300,278,-20,-98,-69,0,-,-,-,-,-
OK
UserDevice> AT+MGPSNMEA
+MGPSNMEA:
 $GPGGA,203331.00,3857.203587,N,09515.067082,W,1,09,0.7,271.9,M,-32.0,M,,*50
 $GPRMC,203331.00,A,3857.203587,N,09515.067082,W,11.0,349.6,301123,2.4,E,A,V*60
OK
UserDevice> AT+MMSVRCELL
+MMSRVCELL:
 "servingcell","NOCONN","LTE","FDD",311,480,34F0720,284,2300,4,5,5,D806,-93,-15,-58,9,-
OK
UserDevice> AT+MGPSNMEA
+MGPSNMEA:
 $GPGGA,203335.00,3857.220567,N,09515.066511,W,1,09,0.7,274.3,M,-32.0,M,,*5A
 $GPRMC,203335.00,A,3857.220567,N,09515.066511,W,19.2,2.5,301123,2.4,E,A,V*60
OK
UserDevice> AT+MMSVRCELL
+MMSRVCELL:
 "servingcell","NOCONN","LTE","FDD",311,480,34F0820,389,2300,4,5,5,D806,-93,-15,-58,8,-
OK
UserDevice> AT+MGPSNMEA
+MGPSNMEA:
 $GPGGA,203339.00,3857.243933,N,09515.066615,W,1,09,0.7,274.9,M,-32.0,M,,*53
 $GPRMC,203339.00,A,3857.243933,N,09515.066615,W,21.6,0.0,301123,2.4,E,A,V*6B
OK
UserDevice> +MMSRVCELL:
 "servingcell","NOCONN","LTE","FDD",311,480,34F0820,389,2300,4,5,5,D806,-86,-9,-57,14,-
OK
UserDevice> AT+MMNEBCELL
AT+MGPSNMEA
+MGPSNMEA:
 $GPGGA,203343.00,3857.268461,N,09515.066032,W,1,09,0.7,276.2,M,-32.0,M,,*57
 $GPRMC,203343.00,A,3857.268461,N,09515.066032,W,21.1,1.4,301123,2.4,E,A,V*64
OK
UserDevice> AT+MMSVRCELL
+MMSRVCELL:
 "servingcell","NOCONN","LTE","FDD",311,480,34F0820,389,2300,4,5,5,D806,-87,-10,-58,10,-
OK
UserDevice> AT+MGPSNMEA
+MGPSNMEA:
 $GPGGA,203347.00,3857.288826,N,09515.065929,W,1,09,0.7,279.7,M,-32.0,M,,*58
 $GPRMC,203347.00,A,3857.288826,N,09515.065929,W,15.2,357.9,301123,2.4,E,A,V*68
OK
UserDevice> AT+MMSVRCELL
+MMSRVCELL:
 "servingcell","NOCONN","LTE","FDD",311,480,34F0820,389,2300,4,5,5,D806,-85,-11,-53,10,-
OK
UserDevice> AT+MGPSNMEA
+MGPSNMEA:
 $GPGGA,203351.00,3857.301179,N,09515.067261,W,1,09,0.7,282.1,M,-32.0,M,,*5B
 $GPRMC,203351.00,A,3857.301179,N,09515.067261,W,7.6,351.4,301123,2.4,E,A,V*55
OK
UserDevice> AT+MMSVRCELL
+MMSRVCELL:
 "servingcell","NOCONN","LTE","FDD",311,480,34F0820,389,2300,4,5,5,D806,-87,-11,-55,10,-
OK
UserDevice> AT+MGPSNMEA
+MGPSNMEA:
 $GPGGA,203355.00,3857.302984,N,09515.068378,W,1,09,0.7,282.2,M,-32.0,M,,*53
 $GPRMC,203355.00,A,3857.302984,N,09515.068378,W,0.0,343.6,301123,2.4,E,A,V*5E
OK
UserDevice> AT+MMSVRCELL
+MMSRVCELL:
 "servingcell","NOCONN","LTE","FDD",311,480,34F0820,389,2300,4,5,5,D806,-88,-10,-58,10,-
OK
UserDevice> AT+MGPSNMEA
+MGPSNMEA:
 $GPGGA,203359.00,3857.307248,N,09515.069286,W,1,09,0.7,281.2,M,-32.0,M,,*53
 $GPRMC,203359.00,A,3857.307248,N,09515.069286,W,4.9,333.3,301123,2.4,E,A,V*52
OK
UserDevice> AT+MMSVRCELL
+MMSRVCELL:
 "servingcell","NOCONN","LTE","FDD",311,480,34F0820,389,2300,4,5,5,D806,-76,-7,-48,13,-
OK
UserDevice> AT+MGPSNMEA
+MGPSNMEA:
 $GPGGA,203403.00,3857.312743,N,09515.069795,W,1,09,0.7,282.2,M,-32.0,M,,*55
 $GPRMC,203403.00,A,3857.312743,N,09515.069795,W,5.3,18.2,301123,2.4,E,A,V*67
OK
UserDevice> AT+MMSVRCELL
+MMSRVCELL:
 "servingcell","NOCONN","LTE","FDD",311,480,34F0820,389,2300,4,5,5,D806,-87,-12,-55,8,-
OK
UserDevice> AT+MGPSNMEA
+MGPSNMEA:
 $GPGGA,203407.00,3857.317012,N,09515.063631,W,1,09,0.7,281.0,M,-32.0,M,,*53
 $GPRMC,203407.00,A,3857.317012,N,09515.063631,W,10.8,76.0,301123,2.4,E,A,V*55
OK
UserDevice> AT+MMSVRCELL
+MMSRVCELL:
 "servingcell","NOCONN","LTE","FDD",311,480,34F0720,284,2300,4,5,5,D806,-85,-12,-53,11,-
OK
UserDevice> 15.042465,W,13.7,96.2,301123,2.4,E,A,V*5A
OK
UserDevice> AT+MGPSNMEA
+MGPSNMEA:
 $GPGGA,203413.00,3857.318466,N,09515.037230,W,1,09,0.7,281.8,M,-32.0,M,,*52
 $GPRMC,203413.00,A,3857.318466,N,095AT+MMSVRCELL
+MMSRVCELL:
 "servingcell","NOCONN","LTE","FDD",311,480,34F0720,284,2300,4,5,5,D806,-78,-9,-48,16,-
OK
UserDevice>  $GPGGA,203416.00,3857.318163,N,09515.025604,W,1,09,0.7,281.2,M,-32.0,M,,*5D
 $GPRMC,203416.00,A,3857.318163,N,09515.025604,W,10.2,90.4,301123,2.4,E,A,V*5F
OK
UserDevice> AT+MGPSNMEA
AT+MMSVRCELL
+MMSRVCELL:
 "servingcell","NOCONN","LTE","FDD",311,480,34F0720,284,2300,4,5,5,D806,-70,-7,-44,19,-
OK
UserDevice> AT+MGPSNMEA
+MGPSNMEA:
 $GPGGA,203420.00,3857.316666,N,09515.015880,W,1,09,0.7,276.9,M,-32.0,M,,*56
 $GPRMC,203420.00,A,3857.316666,N,09515.015880,W,4.5,100.9,301123,2.4,E,A,V*50
OK
UserDevice> AT+MMSVRCELL
+MMSRVCELL:
 "servingcell","NOCONN","LTE","FDD",311,480,34F0720,284,2300,4,5,5,D806,-71,-8,-39,19,-
OK
UserDevice> AT+MGPSNMEA
+MGPSNMEA:
 $GPGGA,203424.00,3857.316163,N,09515.010876,W,1,09,0.7,276.6,M,-32.0,M,,*53
 $GPRMC,203424.00,A,3857.316163,N,09515.010876,W,1.9,99.7,301123,2.4,E,A,V*6C
OK
UserDevice> AT+MMSVRCELL
+MMSRVCELL:
 "servingcell","NOCONN","LTE","FDD",311,480,34F0720,284,2300,4,5,5,D806,-70,-7,-43,20,-
OK
UserDevice> AT+MGPSNMEA
+MGPSNMEA:
 $GPGGA,203427.00,3857.317368,N,09515.009848,W,1,09,0.7,276.7,M,-32.0,M,,*5C
 $GPRMC,203427.00,A,3857.317368,N,09515.009848,W,0.0,99.8,301123,2.4,E,A,V*65
OK
UserDevice> AT+MMSVRCELL
+MMSRVCELL:
 "servingcell","NOCONN","LTE","FDD",311,480,34F0720,284,2300,4,5,5,D806,-69,-7,-42,21,-
OK
UserDevice> AT+MGPSNMEA
+MGPSNMEA:
 $GPGGA,203432.00,3857.317708,N,09515.008912,W,1,09,0.7,277.3,M,-32.0,M,,*50
 $GPRMC,203432.00,A,3857.317708,N,09515.008912,W,0.0,99.8,301123,2.4,E,A,V*6C
OK
UserDevice> AT+MMSVRCELL
+MMSRVCELL:
 "servingcell","NOCONN","LTE","FDD",311,480,34F0720,284,2300,4,5,5,D806,-70,-6,-43,20,-
OK
UserDevice> +MGPSNMEA:
 $GPGGA,203436.00,3857.318153,N,09515.008550,W,1,08,0.8,277.8,M,-32.0,M,,*5C
 $GPRMC,203436.00,A,3857.318153,N,09515.008550,W,0.0,99.8,301123,2.4,E,A,V*65
OK
UserDevice> AT+MAT+MMSVRCELL
+MMSRVCELL:
 "servingcell","NOCONN","LTE","FDD",311,480,34F0720,284,2300,4,5,5,D806,-70,-6,-44,21,-
OK
UserDevice> UserDevice> AT+MMSVRCELL
+MMSRVCELL:
 "servingcell","NOCONN","LTE","FDD",311,480,34F0720,284,2300,4,5,5,D806,-71,-6,-44,20,-
OK
UserDevice> AT+MGPSNMEA
+MGPSNMEA:
 $GPGGA,203445.00,3857.318279,N,09515.007419,W,1,09,0.7,279.9,M,-32.0,M,,*51
 $GPRMC,203445.00,A,3857.318279,N,09515.007419,W,1.2,99.8,301123,2.4,E,A,V*6A
OK
UserDevice> AT+MMSVRCELL
+MMSRVCELL:
 "servingcell","NOCONN","LTE","FDD",311,480,34F0720,284,2300,4,5,5,D806,-70,-8,-36,22,-
OK
UserDevice> AT+MGPSNMEA
+MGPSNMEA:
 $GPGGA,203449.00,3857.318019,N,09515.001267,W,1,09,0.7,278.3,M,-32.0,M,,*5B
 $GPRMC,203449.00,A,3857.318019,N,09515.001267,W,5.8,80.8,301123,2.4,E,A,V*6D
OK
UserDevice> +MMSRVCELL:
 "servingcell","NOCONN","LTE","FDD",311,480,34F0720,284,2300,4,5,5,D806,-64,-6,-37,24,-
OK
UserDevice> AT+MMNEBCELL
AT+MGPSNMEA
+MGPSNMEA:
 $GPGGA,203453.00,3857.320420,N,09514.989662,W,1,09,0.7,278.8,M,-32.0,M,,*57
 $GPRMC,203453.00,A,3857.320420,N,09514.989662,W,10.1,86.8,301123,2.4,E,A,V*51
OK
UserDevice> AT+MMSVRCELL
+MMSRVCELL:
 "servingcell","NOCONN","LTE","FDD",311,480,34F0720,284,2300,4,5,5,D806,-65,-6,-38,21,-
OK
UserDevice> AT+MGPSNMEA
+MGPSNMEA:
 $GPGGA,203457.00,3857.319368,N,09514.975372,W,1,09,0.7,279.4,M,-32.0,M,,*58
 $GPRMC,203457.00,A,3857.319368,N,09514.975372,W,8.2,93.6,301123,2.4,E,A,V*63
OK
UserDevice> AT+MMSVRCELL
+MMSRVCELL:
 "servingcell","NOCONN","LTE","FDD",311,480,34F0720,284,2300,4,5,5,D806,-73,-6,-52,16,-
OK
UserDevice> AT+MGPSNMEA
+MGPSNMEA:
 $GPGGA,203501.00,3857.319197,N,09514.956827,W,1,09,0.7,280.9,M,-32.0,M,,*59
 $GPRMC,203501.00,A,3857.319197,N,09514.956827,W,12.8,88.4,301123,2.4,E,A,V*50
OK
UserDevice> AT+MMSVRCELL
+MMSRVCELL:
 "servingcell","NOCONN","LTE","FDD",311,480,34F0720,284,2300,4,5,5,D806,-82,-8,-52,13,-
OK
UserDevice> AT+MGPSNMEA
+MGPSNMEA:
 $GPGGA,203505.00,3857.320593,N,09514.937923,W,1,08,0.8,278.8,M,-32.0,M,,*5D
 $GPRMC,203505.00,A,3857.320593,N,09514.937923,W,14.4,91.0,301123,2.4,E,A,V*5A
OK
UserDevice> AT+MMSVRCELL
+MMSRVCELL:
 "servingcell","NOCONN","LTE","FDD",311,480,34F0816,388,2300,4,5,5,D806,-83,-9,-54,14,-
OK
UserDevice> AT+MGPSNMEA
+MGPSNMEA:
 $GPGGA,203509.00,3857.320790,N,09514.915658,W,1,09,0.7,278.7,M,-32.0,M,,*52
 $GPRMC,203509.00,A,3857.320790,N,09514.915658,W,15.2,90.2,301123,2.4,E,A,V*50
OK
UserDevice> AT+MMSVRCELL
+MMSRVCELL:
 "servingcell","NOCONN","LTE","FDD",311,480,34F0816,388,2300,4,5,5,D806,-77,-6,-50,17,-
OK
UserDevice> AT+MGPSNMEA
+MGPSNMEA:
 $GPGGA,203513.00,3857.319415,N,09514.893605,W,1,09,0.7,279.5,M,-32.0,M,,*59
 $GPRMC,203513.00,A,3857.319415,N,09514.893605,W,13.7,85.6,301123,2.4,E,A,V*5B
OK
UserDevice> AT+MMSVRCELL
+MMSRVCELL:
 "servingcell","NOCONN","LTE","FDD",311,480,34F0816,388,2300,4,5,5,D806,-80,-9,-50,16,-
OK
UserDevice> AT+MGPSNMEA
+MGPSNMEA:
 $GPGGA,203517.00,3857.319543,N,09514.872020,W,1,09,0.7,278.9,M,-32.0,M,,*5C
 $GPRMC,203517.00,A,3857.319543,N,09514.872020,W,14.2,85.9,301123,2.4,E,A,V*5E
OK
UserDevice> AT+MMSVRCELL
+MMSRVCELL:
 "servingcell","NOCONN","LTE","FDD",311,480,34F0816,388,2300,4,5,5,D806,-77,-8,-48,16,-
OK
UserDevice> AT+MGPSNMEA
+MGPSNMEA:
 $GPGGA,203521.00,3857.317949,N,09514.851262,W,1,09,0.7,279.8,M,-32.0,M,,*54
 $GPRMC,203521.00,A,3857.317949,N,09514.851262,W,10.7,97.4,301123,2.4,E,A,V*59
OK
UserDevice> AT+MMSVRCELL
+MMSRVCELL:
 "servingcell","NOCONN","LTE","FDD",311,480,34F0816,388,2300,4,5,5,D806,-80,-10,-50,15,-
OK
UserDevice> AT+MGPSNMEA
+MGPSNMEA:
 $GPGGA,203525.00,3857.317314,N,09514.832749,W,1,09,0.7,280.9,M,-32.0,M,,*5C
 $GPRMC,203525.00,A,3857.317314,N,09514.832749,W,13.3,90.4,301123,2.4,E,A,V*56
OK
UserDevice> AT+MMSVRCELL
+MMSRVCELL:
 "servingcell","NOCONN","LTE","FDD",311,480,34F0816,388,2300,4,5,5,D806,-84,-10,-54,14,-
OK
UserDevice> AT+MGPSNMEA
+MGPSNMEA:
 $GPGGA,203529.00,3857.317186,N,09514.813161,W,1,09,0.7,279.1,M,-32.0,M,,*58
 $GPRMC,203529.00,A,3857.317186,N,09514.813161,W,13.4,91.0,301123,2.4,E,A,V*5E
OK
UserDevice> AT+MMSVRCELL
+MMSRVCELL:
 "servingcell","NOCONN","LTE","FDD",311,480,34F0816,388,2300,4,5,5,D806,-91,-11,-60,12,-
OK
UserDevice> AT+MGPSNMEA
+MGPSNMEA:
 $GPGGA,203533.00,3857.316889,N,09514.791487,W,1,09,0.7,278.5,M,-32.0,M,,*59
 $GPRMC,203533.00,A,3857.316889,N,09514.791487,W,15.6,90.0,301123,2.4,E,A,V*5F
OK
UserDevice> AT+MMSVRCELL
+MMSRVCELL:
 "servingcell","NOCONN","LTE","FDD",311,480,34F080C,387,2300,4,5,5,D806,-86,-9,-56,13,35
OK
UserDevice> AT+MMNEBCELL
+MGPSNMEA:
 $GPGGA,203538.00,3857.316731,N,09514.763077,W,1,09,0.7,279.0,M,-32.0,M,,*5C
 $GPRMC,203538.00,A,3857.316731,N,09514.763077,W,17.2,85.9,301123,2.4,E,A,V*55
OK
UserDevice> AT+MMSVRCELL
+MMSRVCELL:
 "servingcell","NOCONN","LTE","FDD",311,480,34F080C,387,2300,4,5,5,D806,-88,-8,-59,14,-
OK
UserDevice> AT+MGPSNMEA
+MGPSNMEA:
 $GPGGA,203542.00,3857.316842,N,09514.736727,W,1,09,0.7,282.6,M,-32.0,M,,*5A
 $GPRMC,203542.00,A,3857.316842,N,09514.736727,W,17.4,87.1,301123,2.4,E,A,V*5D
OK
UserDevice> AT+MMSVRCELL
+MMSRVCELL:
 "servingcell","NOCONN","LTE","FDD",311,480,34F080C,387,2300,4,5,5,D806,-94,-11,-62,11,-
OK
UserDevice> AT+MGPSNMEA
+MGPSNMEA:
 $GPGGA,203546.00,3857.316772,N,09514.710785,W,1,09,0.7,284.4,M,-32.0,M,,*5A
 $GPRMC,203546.00,A,3857.316772,N,09514.710785,W,18.8,91.0,301123,2.4,E,A,V*5C
OK
UserDevice> +MMSRVCELL:
 "servingcell","NOCONN","LTE","FDD",311,480,34F080C,387,2300,4,5,5,D806,-95,-16,-54,7,-
OK
UserDevice> AT+MMNEBCELL
AT+MGPSNMEA
+MGPSNMEA:
 $GPGGA,203551.00,3857.316599,N,09514.681804,W,1,09,0.7,288.1,M,-32.0,M,,*5D
 $GPRMC,203551.00,A,3857.316599,N,09514.681804,W,12.7,89.9,301123,2.4,E,A,V*57
OK
UserDevice> AT+MMSVRCELL
+MMSRVCELL:
 "servingcell","NOCONN","LTE","FDD",311,480,34D8716,277,2300,4,5,5,D806,-89,-16,-52,7,-
OK
UserDevice> AT+MGPSNMEA
+MGPSNMEA:
 $GPGGA,203555.00,3857.316763,N,09514.670730,W,1,09,0.7,291.6,M,-32.0,M,,*57
 $GPRMC,203555.00,A,3857.316763,N,09514.670730,W,1.6,89.5,301123,2.4,E,A,V*6D
OK
UserDevice> AT+MMSVRCELL
+MMSRVCELL:
 "servingcell","NOCONN","LTE","FDD",311,480,34D8716,277,2300,4,5,5,D806,-85,-15,-49,11,-
OK
UserDevice> AT+MGPSNMEA
+MGPSNMEA:
 $GPGGA,203559.00,3857.316346,N,09514.670884,W,1,09,0.7,291.5,M,-32.0,M,,*5B
 $GPRMC,203559.00,A,3857.316346,N,09514.670884,W,1.6,89.2,301123,2.4,E,A,V*65
OK
UserDevice> AT+MMSVRCELL
+MMSRVCELL:
 "servingcell","NOCONN","LTE","FDD",311,480,34D8716,277,2300,4,5,5,D806,-87,-15,-51,11,-
OK
UserDevice> AT+MGPSNMEA
+MGPSNMEA:
 $GPGGA,203603.00,3857.317317,N,09514.663374,W,1,09,0.7,291.2,M,-32.0,M,,*53
 $GPRMC,203603.00,A,3857.317317,N,09514.663374,W,5.0,72.6,301123,2.4,E,A,V*68
OK
UserDevice> AT+MMSVRCELL
+MMSRVCELL:
 "servingcell","NOCONN","LTE","FDD",311,480,34D8716,277,2300,4,5,5,D806,-94,-17,-55,8,-
OK
UserDevice> AT+MGPSNMEA
+MGPSNMEA:
 $GPGGA,203607.00,3857.323194,N,09514.658107,W,1,09,0.7,291.5,M,-32.0,M,,*50
 $GPRMC,203607.00,A,3857.323194,N,09514.658107,W,7.9,13.5,301123,2.4,E,A,V*63
OK
UserDevice> AT+MMSVRCELL
+MMSRVCELL:
 "servingcell","NOCONN","LTE","FDD",311,480,34F0816,388,2300,4,5,5,D806,-82,-10,-50,12,-
OK
UserDevice> AT+MGPSNMEA
+MGPSNMEA:
 $GPGGA,203611.00,3857.333731,N,09514.660900,W,1,09,0.7,294.0,M,-32.0,M,,*5B
 $GPRMC,203611.00,A,3857.333731,N,09514.660900,W,12.9,329.9,301123,2.4,E,A,V*6A
OK
UserDevice> AT+MMSVRCELL
+MMSRVCELL:
 "servingcell","NOCONN","LTE","FDD",311,480,34F080C,387,2300,4,5,5,D806,-78,-8,-46,17,-
OK
UserDevice> AT+MGPSNMEA
+MGPSNMEA:
 $GPGGA,203615.00,3857.347319,N,09514.673378,W,1,09,0.7,297.6,M,-32.0,M,,*50
 $GPRMC,203615.00,A,3857.347319,N,09514.673378,W,17.0,322.1,301123,2.4,E,A,V*6B
OK
UserDevice> AT+MMSVRCELL
+MMSRVCELL:
 "servingcell","NOCONN","LTE","FDD",311,480,34F080C,387,2300,4,5,5,D806,-74,-8,-43,13,-
OK
UserDevice> AT+MGPSNMEA
+MGPSNMEA:
 $GPGGA,203619.00,3857.363239,N,09514.689297,W,1,09,0.7,299.2,M,-32.0,M,,*56
 $GPRMC,203619.00,A,3857.363239,N,09514.689297,W,19.4,313.9,301123,2.4,E,A,V*67
OK
UserDevice> AT+MMSVRCELL
+MMSRVCELL:
 "servingcell","NOCONN","LTE","FDD",311,480,34F080C,387,2300,4,5,5,D806,-91,-11,-58,13,-
OK
UserDevice> AT+MGPSNMEA
+MGPSNMEA:
 $GPGGA,203623.00,3857.377362,N,09514.708406,W,1,09,0.7,301.5,M,-32.0,M,,*54
 $GPRMC,203623.00,A,3857.377362,N,09514.708406,W,17.0,307.2,301123,2.4,E,A,V*66
OK
UserDevice> AT+MMSVRCELL
+MMSRVCELL:
 "servingcell","NOCONN","LTE","FDD",311,480,34F080C,387,2300,4,5,5,D806,-69,-7,-40,20,-
OK
UserDevice> AT+MGPSNMEA
+MGPSNMEA:
 $GPGGA,203626.00,3857.386745,N,09514.723293,W,1,09,0.7,301.7,M,-32.0,M,,*5F
 $GPRMC,203626.00,A,3857.386745,N,09514.723293,W,16.3,312.5,301123,2.4,E,A,V*6E
OK
UserDevice> AT+MMSVRCELL
+MMSRVCELL:
 "servingcell","NOCONN","LTE","FDD",311,480,34F080C,387,2300,4,5,5,D806,-71,-8,-43,16,-
OK
UserDevice> AT+MGPSNMEA
+MGPSNMEA:
 $GPGGA,203631.00,3857.400050,N,09514.743396,W,1,09,0.7,305.4,M,-32.0,M,,*56
 $GPRMC,203631.00,A,3857.400050,N,09514.743396,W,12.2,313.7,301123,2.4,E,A,V*66
OK
UserDevice> AT+MMSVRCELL
+MMSRVCELL:
 "servingcell","NOCONN","LTE","FDD",311,480,34F080C,387,2300,4,5,5,D806,-77,-9,-49,14,-
OK
UserDevice> AT+MGPSNMEA
+MGPSNMEA:
 $GPGGA,203635.00,3857.407358,N,09514.751475,W,1,09,0.7,310.2,M,-32.0,M,,*55
 $GPRMC,203635.00,A,3857.407358,N,09514.751475,W,6.1,335.5,301123,2.4,E,A,V*57
OK
UserDevice> AT+MMSVRCELL
+MMSRVCELL:
 "servingcell","NOCONN","LTE","FDD",311,480,34F080C,387,2300,4,5,5,D806,-79,-9,-48,14,-
OK
UserDevice> AT+MGPSNMEA
+MGPSNMEA:
 $GPGGA,203639.00,3857.410916,N,09514.752108,W,1,09,0.7,311.8,M,-32.0,M,,*58
 $GPRMC,203639.00,A,3857.410916,N,09514.752108,W,1.8,335.1,301123,2.4,E,A,V*5B
OK
UserDevice> AT+MMSVRCELL
+MMSRVCELL:
 "servingcell","NOCONN","LTE","FDD",311,480,34F080C,387,2300,4,5,5,D806,-81,-9,-52,12,-
OK
UserDevice> AT+MGPSNMEA
+MGPSNMEA:
 $GPGGA,203643.00,3857.416103,N,09514.753702,W,1,09,0.7,311.2,M,-32.0,M,,*58
 $GPRMC,203643.00,A,3857.416103,N,09514.753702,W,9.0,355.5,301123,2.4,E,A,V*53
OK
UserDevice> AT+MMSVRCELL
+MMSRVCELL:
 "servingcell","NOCONN","LTE","FDD",311,480,34F080C,387,2300,4,5,5,D806,-81,-11,-49,11,-
OK
UserDevice> AT+MMNEBCELL
+MGPSNMEA:
 $GPGGA,203647.00,3857.424206,N,09514.753534,W,1,08,0.8,312.2,M,-32.0,M,,*51
 $GPRMC,203647.00,A,3857.424206,N,09514.753534,W,5.9,7.1,301123,2.4,E,A,V*52
OK
UserDevice> AT+MMSVRCELL
+MMSRVCELL:
 "servingcell","NOCONN","LTE","FDD",311,480,34F080C,387,2300,4,5,5,D806,-82,-11,-51,11,-
OK
UserDevice> AT+MGPSNMEA
+MGPSNMEA:
 $GPGGA,203651.00,3857.426322,N,09514.753033,W,1,09,0.7,310.2,M,-32.0,M,,*5D
 $GPRMC,203650.00,A,3857.426417,N,09514.753074,W,0.0,12.4,301123,2.4,E,A,V*6C
OK
UserDevice> AT+MMSVRCELL
+MMSRVCELL:
 "servingcell","NOCONN","LTE","FDD",311,480,34F080C,387,2300,4,5,5,D806,-82,-12,-50,10,-
OK
UserDevice> AT+MGPSNMEA
+MGPSNMEA:
 $GPGGA,203654.00,3857.426371,N,09514.752953,W,1,09,0.7,309.8,M,-32.0,M,,*52
 $GPRMC,203654.00,A,3857.426371,N,09514.752953,W,0.0,12.4,301123,2.4,E,A,V*62
OK
UserDevice> +MMSRVCELL:
 "servingcell","NOCONN","LTE","FDD",311,480,34F080C,387,2300,4,5,5,D806,-82,-12,-49,11,-
OK
UserDevice> AT+MMNEBCELL
AT+MGPSNMEA
+MGPSNMEA:
 $GPGGA,203700.00,3857.427230,N,09514.752691,W,1,09,0.7,312.8,M,-32.0,M,,*5C
 $GPRMC,203700.00,A,3857.427230,N,09514.752691,W,0.0,12.4,301123,2.4,E,A,V*66
OK
UserDevice> AT+MMSVRCELL
+MMSRVCELL:
 "servingcell","NOCONN","LTE","FDD",311,480,34F080C,387,2300,4,5,5,D806,-82,-11,-51,11,-
OK
UserDevice> AT+MGPSNMEA
+MGPSNMEA:
 $GPGGA,203704.00,3857.428664,N,09514.752934,W,1,08,0.7,316.7,M,-32.0,M,,*58
 $GPRMC,203704.00,A,3857.428664,N,09514.752934,W,0.0,12.4,301123,2.4,E,A,V*68
OK
UserDevice> AT+MMSVRCELL
+MMSRVCELL:
 "servingcell","NOCONN","LTE","FDD",311,480,34F080C,387,2300,4,5,5,D806,-83,-11,-51,10,-
OK
UserDevice> AT+MGPSNMEA
+MGPSNMEA:
 $GPGGA,203708.00,3857.428801,N,09514.752893,W,1,09,0.7,316.6,M,-32.0,M,,*55
 $GPRMC,203708.00,A,3857.428801,N,09514.752893,W,0.0,12.4,301123,2.4,E,A,V*65
OK
UserDevice> AT+MMSVRCELL
+MMSRVCELL:
 "servingcell","NOCONN","LTE","FDD",311,480,34F080C,387,2300,4,5,5,D806,-82,-11,-47,10,-
OK
UserDevice> AT+MGPSNMEA
+MGPSNMEA:
 $GPGGA,203712.00,3857.428613,N,09514.752619,W,1,09,0.7,316.9,M,-32.0,M,,*50
 $GPRMC,203712.00,A,3857.428613,N,09514.752619,W,0.0,12.4,301123,2.4,E,A,V*6F
OK
UserDevice> AT+MMSVRCELL
+MMSRVCELL:
 "servingcell","NOCONN","LTE","FDD",311,480,34F080C,387,2300,4,5,5,D806,-82,-11,-51,10,-
OK
UserDevice> AT+MGPSNMEA
+MGPSNMEA:
 $GPGGA,203716.00,3857.425822,N,09514.753023,W,1,09,0.7,311.5,M,-32.0,M,,*50
 $GPRMC,203716.00,A,3857.425822,N,09514.753023,W,0.0,12.4,301123,2.4,E,A,V*64
OK
UserDevice> AT+MMSVRCELL
+MMSRVCELL:
 "servingcell","NOCONN","LTE","FDD",311,480,34F080C,387,2300,4,5,5,D806,-81,-11,-51,11,-
OK
UserDevice> AT+MGPSNMEA
+MGPSNMEA:
 $GPGGA,203720.00,3857.424120,N,09514.754135,W,1,08,0.7,307.7,M,-32.0,M,,*5A
 $GPRMC,203720.00,A,3857.424120,N,09514.754135,W,0.0,12.4,301123,2.4,E,A,V*6A
OK
UserDevice> AT+MMSVRCELL
+MMSRVCELL:
 "servingcell","NOCONN","LTE","FDD",311,480,34F080C,387,2300,4,5,5,D806,-81,-10,-51,12,-
OK
UserDevice> AT+MGPSNMEA
+MGPSNMEA:
 $GPGGA,203724.00,3857.423520,N,09514.754385,W,1,09,0.7,307.7,M,-32.0,M,,*55
 $GPRMC,203724.00,A,3857.423520,N,09514.754385,W,0.0,12.4,301123,2.4,E,A,V*64
OK
UserDevice> AT+MMSVRCELL
+MMSRVCELL:
 "servingcell","NOCONN","LTE","FDD",311,480,34F0801,387,5230,13,3,3,D806,-67,-10,-39,15,-
OK
UserDevice> AT+MGPSNMEA
+MGPSNMEA:
 $GPGGA,203728.00,3857.425233,N,09514.753479,W,1,09,0.7,307.8,M,-32.0,M,,*56
 $GPRMC,203728.00,A,3857.425233,N,09514.753479,W,0.9,12.4,301123,2.4,E,A,V*61
OK
UserDevice> AT+MMSVRCELL
+MMSRVCELL:
 "servingcell","NOCONN","LTE","FDD",311,480,34F0801,387,5230,13,3,3,D806,-72,-10,-47,12,-
OK
UserDevice> AT+MGPSNMEA
+MGPSNMEA:
 $GPGGA,203732.00,3857.429261,N,09514.752213,W,1,09,0.7,307.4,M,-32.0,M,,*51
 $GPRMC,203732.00,A,3857.429261,N,09514.752213,W,5.3,13.2,301123,2.4,E,A,V*62
OK
UserDevice> AT+MMSVRCELL
+MMSRVCELL:
 "servingcell","NOCONN","LTE","FDD",311,480,34F0B01,405,5230,13,3,3,D806,-73,-11,-43,11,-
OK
UserDevice> AT+MGPSNMEA
+MGPSNMEA:
 $GPGGA,203736.00,3857.437087,N,09514.751506,W,1,09,0.7,307.5,M,-32.0,M,,*51
 $GPRMC,203736.00,A,3857.437087,N,09514.751506,W,6.5,353.5,301123,2.4,E,A,V*56
OK
UserDevice> AT+MMSVRCELL
+MMSRVCELL:
 "servingcell","NOCONN","LTE","FDD",311,480,34F0B01,405,5230,13,3,3,D806,-69,-8,-44,13,-
OK
UserDevice> AT+MGPSNMEA
+MGPSNMEA:
 $GPGGA,203740.00,3857.445109,N,09514.759760,W,1,09,0.7,308.2,M,-32.0,M,,*50
 $GPRMC,203740.00,A,3857.445109,N,09514.759760,W,12.5,295.6,301123,2.4,E,A,V*62
OK
UserDevice> AT+MMSVRCELL
+MMSRVCELL:
 "servingcell","NOCONN","LTE","FDD",311,480,34F0801,387,5230,13,3,3,D806,-72,-6,-48,19,-
OK
UserDevice> AT+MGPSNMEA
+MGPSNMEA:
 $GPGGA,203744.00,3857.450546,N,09514.777002,W,1,09,0.7,308.7,M,-32.0,M,,*55
 $GPRMC,203744.00,A,3857.450546,N,09514.777002,W,13.2,287.7,301123,2.4,E,A,V*66
OK
UserDevice> AT+MMSVRCELL
+MMSRVCELL:
 "servingcell","NOCONN","LTE","FDD",311,480,34F0801,387,5230,13,3,3,D806,-68,-7,-44,19,-
OK
UserDevice> AT+MGPSNMEA
+MGPSNMEA:
 $GPGGA,203748.00,3857.456516,N,09514.795471,W,1,08,0.8,308.7,M,-32.0,M,,*58
 $GPRMC,203748.00,A,3857.456516,N,09514.795471,W,13.0,292.7,301123,2.4,E,A,V*63
OK
UserDevice> AT+MMSVRCELL
+MMSRVCELL:
 "servingcell","NOCONN","LTE","FDD",311,480,34F0801,387,5230,13,3,3,D806,-73,-8,-43,15,-
OK
UserDevice> AT+MGPSNMEA
+MGPSNMEA:
 $GPGGA,203753.00,3857.464324,N,09514.814352,W,1,09,0.7,307.2,M,-32.0,M,,*50
 $GPRMC,203753.00,A,3857.464324,N,09514.814352,W,10.6,293.9,301123,2.4,E,A,V*65
OK
UserDevice> AT+MMSVRCELL
+MMSRVCELL:
 "servingcell","NOCONN","LTE","FDD",311,480,34F0801,387,5230,13,3,3,D806,-69,-7,-44,13,-
OK
UserDevice> AT+MMNEBCELL
+MGPSNMEA:
 $GPGGA,203757.00,3857.467654,N,09514.824004,W,1,08,0.7,309.8,M,-32.0,M,,*53
 $GPRMC,203757.00,A,3857.467654,N,09514.824004,W,3.3,294.8,301123,2.4,E,A,V*52
OK
UserDevice> AT+MMSVRCELL
+MMSRVCELL:
 "servingcell","NOCONN","LTE","FDD",311,480,34F0801,387,5230,13,3,3,D806,-72,-6,-46,16,-
OK
UserDevice> AT+MGPSNMEA
+MGPSNMEA:
 $GPGGA,203801.00,3857.466322,N,09514.824640,W,1,08,0.7,307.8,M,-32.0,M,,*52
 $GPRMC,203801.00,A,3857.466322,N,09514.824640,W,0.0,292.5,301123,2.4,E,A,V*56
OK
UserDevice> AT+MMSVRCELL
