AT+MGPSNMEA
+MGPSNMEA:
 $GPGGA,202201.00,3857.172776,N,09515.786015,W,1,02,5.2,295.1,M,-32.0,M,,*55
 $GPRMC,202201.00,A,3857.172776,N,09515.786015,W,,,301123,2.5,E,A,V*55
OK
UserDevice> AT+MMNEBCELL
+MMNEBCELL:
 "neighbourcell intra","LTE",2300,332,-16,-89,-52,0,-,-,-,-,-
 "neighbourcell intra","LTE",2300,384,-19,-93,-66,0,-,-,-,-,-
 "neighbourcell intra","LTE",2300,331,-16,-90,-65,0,-,-,-,-,-
 "neighbourcell intra","LTE",2300,280,-19,-93,-66,0,-,-,-,-,-
OK
UserDevice> AT+MMNEBCELL
+MMNEBCELL:
 "neighbourcell intra","LTE",2300,332,-16,-89,-52,0,-,-,-,-,-
 "neighbourcell intra","LTE",2300,384,-19,-93,-66,0,-,-,-,-,-
 "neighbourcell intra","LTE",2300,331,-16,-90,-65,0,-,-,-,-,-
 "neighbourcell intra","LTE",2300,280,-19,-93,-66,0,-,-,-,-,-
OK
UserDevice> AT+MGPSNMEA
+MGPSNMEA:
 $GPGGA,202205.00,3857.214342,N,09515.736288,W,1,02,1.7,295.4,M,-32.0,M,,*58
 $GPRMC,202205.00,A,3857.214342,N,09515.736288,W,18.9,70.3,301123,2.5,E,A,V*58
OK
UserDevice> AT+MMNEBCELL
+MMNEBCELL:
 "neighbourcell intra","LTE",2300,332,-16,-88,-49,0,-,-,-,-,-
 "neighbourcell intra","LTE",2300,384,-17,-89,-63,0,-,-,-,-,-
 "neighbourcell intra","LTE",2300,331,-20,-91,-63,0,-,-,-,-,-
 "neighbourcell intra","LTE",2300,280,-20,-94,-63,0,-,-,-,-,-
OK
UserDevice> AT+MGPSNMEA
+MGPSNMEA:
 $GPGGA,202209.00,3857.207540,N,09515.677971,W,1,02,1.8,295.8,M,-32.0,M,,*58
 $GPRMC,202209.00,A,3857.207540,N,09515.677971,W,23.6,84.1,301123,2.5,E,A,V*55
OK
UserDevice> AT+MMNEBCELL
+MMNEBCELL:
 "neighbourcell intra","LTE",2300,260,-18,-90,-51,0,-,-,-,-,-
OK
UserDevice> AT+MGPSNMEA
+MGPSNMEA:
 $GPGGA,,,,,,0,,,,,,,,*66
 $GPRMC,,V,,,,,,,,,,N*53
OK
UserDevice> AT+MMNEBCELL
+MMNEBCELL:
 "neighbourcell intra","LTE",2300,260,-20,-84,-55,0,-,-,-,-,-
 "neighbourcell intra","LTE",2300,214,-9,-75,-46,0,-,-,-,-,-
 "neighbourcell intra","LTE",2300,104,-19,-83,-55,0,-,-,-,-,-
 "neighbourcell intra","LTE",2300,384,-20,-87,-55,0,-,-,-,-,-
OK
UserDevice> AT+MGPSNMEA
+MGPSNMEA:
 $GPGGA,,,,,,0,,,,,,,,*66
 $GPRMC,,V,,,,,,,,,,N*53
OK
UserDevice> AT+MMNEBCELL
+MMNEBCELL:
 "neighbourcell intra","LTE",2300,260,-20,-85,-55,0,-,-,-,-,-
 "neighbourcell intra","LTE",2300,214,-10,-76,-44,0,-,-,-,-,-
 "neighbourcell intra","LTE",2300,384,-19,-84,-55,0,-,-,-,-,-
 "neighbourcell intra","LTE",2300,104,-19,-83,-55,0,-,-,-,-,-
 "neighbourcell intra","LTE",2300,278,-20,-86,-55,0,-,-,-,-,-
OK
UserDevice> AT+MGPSNMEA
+MGPSNMEA:
 $GPGGA,,,,,,0,,,,,,,,*66
 $GPRMC,,V,,,,,,,,,,N*53
OK
UserDevice> AT+MMNEBCELL
+MMNEBCELL:
 "neighbourcell intra","LTE",2300,384,-20,-83,-55,0,-,-,-,-,-
 "neighbourcell intra","LTE",2300,214,-9,-75,-45,0,-,-,-,-,-
 "neighbourcell intra","LTE",2300,260,-20,-89,-56,0,-,-,-,-,-
OK
UserDevice> AT+MGPSNMEA
+MGPSNMEA:
 $GPGGA,,,,,,0,,,,,,,,*66
 $GPRMC,,V,,,,,,,,,,N*53
OK
UserDevice> AT+MMNEBCELL
+MMNEBCELL:
 "neighbourcell intra","LTE",2300,384,-20,-86,-58,0,-,-,-,-,-
 "neighbourcell intra","LTE",2300,214,-9,-77,-48,0,-,-,-,-,-
 "neighbourcell intra","LTE",2300,260,-20,-92,-58,0,-,-,-,-,-
OK
UserDevice> AT+MGPSNMEA
+MGPSNMEA:
 $GPGGA,,,,,,0,,,,,,,,*66
 $GPRMC,,V,,,,,,,,,,N*53
OK
UserDevice> +MMNEBCELL:
 "neighbourcell intra","LTE",2300,260,-20,-90,-60,0,-,-,-,-,-
 "neighbourcell intra","LTE",2300,214,-9,-78,-49,0,-,-,-,-,-
 "neighbourcell intra","LTE",2300,384,-19,-88,-59,0,-,-,-,-,-
OK
UserDevice> AT+MGPSNMEA
AT+MGPSNMEA
+MGPSNMEA:
 $GPGGA,,,,,,0,,,,,,,,*66
 $GPRMC,,V,,,,,,,,,,N*53
OK
UserDevice> AT+MMNEBCELL
+MMNEBCELL:
 "neighbourcell intra","LTE",2300,260,-20,-87,-59,0,-,-,-,-,-
 "neighbourcell intra","LTE",2300,214,-10,-78,-47,0,-,-,-,-,-
 "neighbourcell intra","LTE",2300,384,-20,-89,-59,0,-,-,-,-,-
OK
UserDevice> AT+MGPSNMEA
+MGPSNMEA:
 $GPGGA,,,,,,0,,,,,,,,*66
 $GPRMC,,V,,,,,,,,,,N*53
OK
UserDevice> AT+MMNEBCELL
+MMNEBCELL:
 "neighbourcell intra","LTE",2300,260,-20,-90,-57,0,-,-,-,-,-
 "neighbourcell intra","LTE",2300,214,-9,-75,-44,0,-,-,-,-,-
 "neighbourcell intra","LTE",2300,384,-20,-90,-57,0,-,-,-,-,-
OK
UserDevice> AT+MGPSNMEA
+MGPSNMEA:
 $GPGGA,,,,,,0,,,,,,,,*66
 $GPRMC,,V,,,,,,,,,,N*53
OK
UserDevice> AT+MMSVRCELL
+MMNEBCELL:
 "neighbourcell intra","LTE",2300,260,-18,-89,-62,0,-,-,-,-,-
 "neighbourcell intra","LTE",2300,214,-9,-76,-46,0,-,-,-,-,-
 "neighbourcell intra","LTE",2300,278,-19,-92,-64,0,-,-,-,-,-
 "neighbourcell intra","LTE",2300,384,-20,-92,-64,0,-,-,-,-,-
 "neighbourcell intra","LTE",2300,213,-20,-93,-64,0,-,-,-,-,-
OK
UserDevice> AT+MGPSNMEA
+MGPSNMEA:
 $GPGGA,,,,,,0,,,,,,,,*66
 $GPRMC,,V,,,,,,,,,,N*53
OK
UserDevice> AT+MMNEBCELL
+MMNEBCELL:
 "neighbourcell intra","LTE",2300,260,-20,-83,-53,0,-,-,-,-,-
 "neighbourcell intra","LTE",2300,214,-9,-67,-37,0,-,-,-,-,-
 "neighbourcell intra","LTE",2300,246,-20,-91,-53,0,-,-,-,-,-
OK
UserDevice> AT+MGPSNMEA
UserDevice> AT+MMNEBCELL
+MMNEBCELL:
 "neighbourcell intra","LTE",2300,214,-8,-62,-30,0,-,-,-,-,-
OK
UserDevice> AT+MGPSNMEA
+MGPSNMEA:
 $GPGGA,202255.00,3857.222889,N,09515.560250,W,1,03,1.4,305.2,M,-32.0,M,,*5C
 $GPRMC,202255.00,A,3857.222889,N,09515.560250,W,12.7,79.5,301123,2.5,E,A,V*5B
OK
UserDevice> AT+MMNEBCELL
+MMNEBCELL:
 "neighbourcell intra","LTE",2300,214,-9,-66,-36,0,-,-,-,-,-
 "neighbourcell intra","LTE",2300,278,-20,-84,-46,0,-,-,-,-,-
 "neighbourcell intra","LTE",2300,260,-19,-77,-46,0,-,-,-,-,-
OK
UserDevice> +MGPSNMEA:
 $GPGGA,202259.00,3857.233307,N,09515.536519,W,1,02,2.3,304.6,M,-32.0,M,,*54
 $GPRMC,202259.00,A,3857.233307,N,09515.536519,W,15.9,68.7,301123,2.5,E,A,V*58
OK
UserDevice> AT+MMSVRCELL
AT+MMNEBCELL
+MMNEBCELL:
 "neighbourcell intra","LTE",2300,214,-9,-70,-40,0,-,-,-,-,-
OK
UserDevice> AT+MGPSNMEA
+MGPSNMEA:
 $GPGGA,,,,,,0,,,,,,,,*66
 $GPRMC,,V,,,,,,,,,,N*53
OK
UserDevice> AT+MMNEBCELL
+MMNEBCELL:
 "neighbourcell intra","LTE",2300,214,-8,-68,-40,0,-,-,-,-,-
 "neighbourcell intra","LTE",2300,260,-15,-79,-52,0,-,-,-,-,-
 "neighbourcell intra","LTE",2300,278,-20,-84,-53,0,-,-,-,-,-
OK
UserDevice> AT+MGPSNMEA
+MGPSNMEA:
 $GPGGA,,,,,,0,,,,,,,,*66
 $GPRMC,,V,,,,,,,,,,N*53
OK
UserDevice> AT+MMNEBCELL
+MMNEBCELL:
 "neighbourcell intra","LTE",2300,214,-7,-67,-39,0,-,-,-,-,-
 "neighbourcell intra","LTE",2300,260,-19,-80,-51,0,-,-,-,-,-
 "neighbourcell intra","LTE",2300,104,-20,-85,-50,0,-,-,-,-,-
OK
UserDevice> AT+MGPSNMEA
+MGPSNMEA:
 $GPGGA,,,,,,0,,,,,,,,*66
 $GPRMC,,V,,,,,,,,,,N*53
OK
UserDevice> AT+MMNEBCELL
+MMNEBCELL:
 "neighbourcell intra","LTE",2300,214,-8,-71,-43,0,-,-,-,-,-
 "neighbourcell intra","LTE",2300,260,-20,-87,-51,0,-,-,-,-,-
OK
UserDevice> AT+MGPSNMEA
+MGPSNMEA:
 $GPGGA,,,,,,0,,,,,,,,*66
 $GPRMC,,V,,,,,,,,,,N*53
OK
UserDevice> +MMNEBCELL:
 "neighbourcell intra","LTE",2300,214,-10,-82,-50,0,-,-,-,-,-
 "neighbourcell intra","LTE",2300,260,-16,-86,-60,0,-,-,-,-,-
 "neighbourcell intra","LTE",2300,278,-13,-83,-61,0,-,-,-,-,-
OK
UserDevice> AT+MGPSNMEA
AT+MGPSNMEA
+MGPSNMEA:
 $GPGGA,,,,,,0,,,,,,,,*66
 $GPRMC,,V,,,,,,,,,,N*53
OK
UserDevice> AT+MMNEBCELL
+MMNEBCELL:
 "neighbourcell intra","LTE",2300,214,-11,-81,-49,0,-,-,-,-,-
 "neighbourcell intra","LTE",2300,260,-14,-82,-63,0,-,-,-,-,-
 "neighbourcell intra","LTE",2300,278,-19,-88,-62,0,-,-,-,-,-
 "neighbourcell intra","LTE",2300,104,-17,-86,-62,0,-,-,-,-,-
OK
UserDevice> AT+MGPSNMEA
+MGPSNMEA:
 $GPGGA,,,,,,0,,,,,,,,*66
 $GPRMC,,V,,,,,,,,,,N*53
OK
UserDevice> AT+MMNEBCELL
+MMNEBCELL:
 "neighbourcell intra","LTE",2300,214,-19,-88,-43,0,-,-,-,-,-
 "neighbourcell intra","LTE",2300,260,-15,-78,-53,0,-,-,-,-,-
 "neighbourcell intra","LTE",2300,278,-19,-85,-53,0,-,-,-,-,-
 "neighbourcell intra","LTE",2300,104,-19,-81,-53,0,-,-,-,-,-
OK
UserDevice> AT+MGPSNMEA
+MGPSNMEA:
 $GPGGA,202328.00,3857.160875,N,09515.478336,W,1,06,1.0,300.6,M,-32.0,M,,*58
 $GPRMC,202328.00,A,3857.160875,N,09515.478336,W,19.7,157.1,301123,2.5,E,A,V*6D
OK
UserDevice> AT+MMSVRCELL
+MMNEBCELL:
 "neighbourcell intra","LTE",2300,260,-15,-85,-51,0,-,-,-,-,-
 "neighbourcell intra","LTE",2300,214,-18,-90,-62,0,-,-,-,-,-
 "neighbourcell intra","LTE",2300,278,-15,-85,-63,0,-,-,-,-,-
 "neighbourcell intra","LTE",2300,104,-16,-87,-62,0,-,-,-,-,-
OK
UserDevice> AT+MGPSNMEA
+MGPSNMEA:
 $GPGGA,202333.00,3857.138462,N,09515.458668,W,1,06,1.0,304.1,M,-32.0,M,,*5A
 $GPRMC,202333.00,A,3857.138462,N,09515.458668,W,18.4,142.8,301123,2.5,E,A,V*63
OK
UserDevice> AT+MMNEBCELL
+MMNEBCELL:
 "neighbourcell intra","LTE",2300,260,-18,-86,-48,0,-,-,-,-,-
 "neighbourcell intra","LTE",2300,214,-20,-93,-58,0,-,-,-,-,-
 "neighbourcell intra","LTE",2300,278,-12,-82,-58,0,-,-,-,-,-
 "neighbourcell intra","LTE",2300,331,-20,-97,-59,0,-,-,-,-,-
OK
UserDevice> AT+MGPSNMEA
+MGPSNMEA:
 $GPGGA,202337.00,3857.125864,N,09515.439170,W,1,06,1.0,295.7,M,-32.0,M,,*5E
 $GPRMC,202337.00,A,3857.125864,N,09515.439170,W,20.0,133.4,301123,2.5,E,A,V*6D
OK
UserDevice> AT+MMNEBCELL
+MMNEBCELL:
 "neighbourcell intra","LTE",2300,260,-19,-90,-62,0,-,-,-,-,-
 "neighbourcell intra","LTE",2300,278,-16,-85,-47,0,-,-,-,-,-
 "neighbourcell intra","LTE",2300,331,-16,-88,-61,0,-,-,-,-,-
 "neighbourcell intra","LTE",2300,282,-20,-93,-61,0,-,-,-,-,-
OK
UserDevice> AT+MGPSNMEA
+MGPSNMEA:
 $GPGGA,202341.00,3857.113736,N,09515.418954,W,1,06,1.0,291.7,M,-32.0,M,,*5B
 $GPRMC,202341.00,A,3857.113736,N,09515.418954,W,17.4,119.8,301123,2.5,E,A,V*68
OK
UserDevice> AT+MMNEBCELL
+MMNEBCELL:
 "neighbourcell intra","LTE",2300,387,-19,-88,-61,0,-,-,-,-,-
 "neighbourcell intra","LTE",2300,278,-15,-83,-48,0,-,-,-,-,-
 "neighbourcell intra","LTE",2300,331,-13,-84,-61,0,-,-,-,-,-
OK
UserDevice> AT+MGPSNMEA
+MGPSNMEA:
 $GPGGA,202345.00,3857.106430,N,09515.401383,W,1,05,1.1,288.0,M,-32.0,M,,*5B
 $GPRMC,202345.00,A,3857.106430,N,09515.401383,W,13.1,113.5,301123,2.5,E,A,V*63
OK
UserDevice> AT+MMNEBCELL
+MMNEBCELL:
 "neighbourcell intra","LTE",2300,331,-17,-87,-65,0,-,-,-,-,-
 "neighbourcell intra","LTE",2300,278,-15,-83,-49,0,-,-,-,-,-
OK
UserDevice> AT+MGPSNMEA
+MGPSNMEA:
 $GPGGA,202349.00,3857.099889,N,09515.393461,W,1,05,1.6,284.6,M,-32.0,M,,*54
 $GPRMC,202349.00,A,3857.099889,N,09515.393461,W,6.4,133.3,301123,2.5,E,A,V*54
OK
UserDevice> AT+MMNEBCELL
+MMNEBCELL:
 "neighbourcell intra","LTE",2300,331,-15,-86,-64,0,-,-,-,-,-
 "neighbourcell intra","LTE",2300,278,-13,-85,-50,0,-,-,-,-,-
 "neighbourcell intra","LTE",2300,387,-20,-90,-64,0,-,-,-,-,-
OK
UserDevice> AT+MGPSNMEA
+MGPSNMEA:
 $GPGGA,202353.00,3857.096491,N,09515.390397,W,1,05,1.1,282.4,M,-32.0,M,,*5B
 $GPRMC,202353.00,A,3857.096491,N,09515.390397,W,0.0,153.6,301123,2.5,E,A,V*59
OK
UserDevice> AT+MMNEBCELL
+MMNEBCELL:
 "neighbourcell intra","LTE",2300,331,-16,-87,-62,0,-,-,-,-,-
 "neighbourcell intra","LTE",2300,278,-13,-84,-50,0,-,-,-,-,-
 "neighbourcell intra","LTE",2300,387,-20,-91,-62,0,-,-,-,-,-
OK
UserDevice> AT+MGPSNMEA
+MGPSNMEA:
 $GPGGA,202357.00,3857.096365,N,09515.392428,W,1,06,1.2,281.6,M,-32.0,M,,*53
 $GPRMC,202357.00,A,3857.096365,N,09515.392428,W,0.0,153.6,301123,2.5,E,A,V*50
OK
UserDevice> AT+MMNEBCELL
+MMNEBCELL:
 "neighbourcell intra","LTE",2300,331,-14,-86,-63,0,-,-,-,-,-
 "neighbourcell intra","LTE",2300,278,-15,-81,-45,0,-,-,-,-,-
 "neighbourcell intra","LTE",2300,387,-17,-88,-63,0,-,-,-,-,-
OK
UserDevice> AT+MGPSNMEA
+MGPSNMEA:
 $GPGGA,202401.00,3857.096239,N,09515.392130,W,1,07,1.1,281.9,M,-32.0,M,,*5E
 $GPRMC,202401.00,A,3857.096239,N,09515.392130,W,0.0,153.6,301123,2.5,E,A,V*50
OK
UserDevice> AT+MMNEBCELL
+MMNEBCELL:
 "neighbourcell intra","LTE",2300,331,-16,-87,-63,0,-,-,-,-,-
 "neighbourcell intra","LTE",2300,278,-13,-84,-50,0,-,-,-,-,-
OK
UserDevice> AT+MGPSNMEA
+MGPSNMEA:
 $GPGGA,202406.00,3857.096282,N,09515.392152,W,1,06,1.3,282.0,M,-32.0,M,,*54
 $GPRMC,202406.00,A,3857.096282,N,09515.392152,W,0.0,153.6,301123,2.5,E,A,V*53
OK
UserDevice> AT+MMNEBCELL
+MMNEBCELL:
 "neighbourcell intra","LTE",2300,331,-17,-89,-63,0,-,-,-,-,-
 "neighbourcell intra","LTE",2300,278,-16,-86,-49,0,-,-,-,-,-
 "neighbourcell intra","LTE",2300,387,-20,-97,-63,0,-,-,-,-,-
OK
UserDevice> AT+MGPSNMEA
+MGPSNMEA:
 $GPGGA,202410.00,3857.092705,N,09515.384575,W,1,06,1.3,282.6,M,-32.0,M,,*5D
 $GPRMC,202410.00,A,3857.092705,N,09515.384575,W,15.0,117.7,301123,2.5,E,A,V*69
OK
UserDevice> AT+MMNEBCELL
+MMNEBCELL:
 "neighbourcell intra","LTE",2300,331,-14,-87,-64,0,-,-,-,-,-
 "neighbourcell intra","LTE",2300,278,-15,-87,-51,0,-,-,-,-,-
 "neighbourcell intra","LTE",2300,387,-19,-92,-64,0,-,-,-,-,-
OK
UserDevice> AT+MGPSNMEA
+MGPSNMEA:
 $GPGGA,202414.00,3857.089910,N,09515.376373,W,1,06,1.0,284.0,M,-32.0,M,,*57
 $GPRMC,202414.00,A,3857.089910,N,09515.376373,W,6.6,116.4,301123,2.5,E,A,V*56
OK
UserDevice> +MMNEBCELL:
 "neighbourcell intra","LTE",2300,331,-18,-88,-58,0,-,-,-,-,-
 "neighbourcell intra","LTE",2300,278,-12,-80,-47,0,-,-,-,-,-
 "neighbourcell intra","LTE",2300,332,-20,-91,-58,0,-,-,-,-,-
 "neighbourcell intra","LTE",2300,387,-20,-92,-58,0,-,-,-,-,-
OK
UserDevice> AT+MGPSNMEA
AT+MGPSNMEA
+MGPSNMEA:
 $GPGGA,202418.00,3857.080889,N,09515.367141,W,1,06,1.0,286.6,M,-32.0,M,,*54
 $GPRMC,202418.00,A,3857.080889,N,09515.367141,W,7.7,143.4,301123,2.5,E,A,V*51
OK
UserDevice> AT+MMNEBCELL
+MMNEBCELL:
 "neighbourcell intra","LTE",2300,331,-18,-89,-60,0,-,-,-,-,-
 "neighbourcell intra","LTE",2300,278,-12,-82,-50,0,-,-,-,-,-
OK
UserDevice> AT+MGPSNMEA
+MGPSNMEA:
 $GPGGA,202422.00,3857.073693,N,09515.356375,W,1,07,0.9,289.5,M,-32.0,M,,*56
 $GPRMC,202422.00,A,3857.073693,N,09515.356375,W,9.9,128.1,301123,2.5,E,A,V*5E
OK
UserDevice> AT+MMNEBCELL
+MMNEBCELL:
 "neighbourcell intra","LTE",2300,331,-20,-95,-57,0,-,-,-,-,-
 "neighbourcell intra","LTE",2300,278,-12,-76,-42,0,-,-,-,-,-
OK
UserDevice> AT+MGPSNMEA
+MGPSNMEA:
 $GPGGA,202426.00,3857.077566,N,09515.335775,W,1,07,0.9,286.2,M,-32.0,M,,*56
 $GPRMC,202426.00,A,3857.077566,N,09515.335775,W,10.7,80.5,301123,2.5,E,A,V*57
OK
UserDevice> AT+MMSVRCELL
+MMNEBCELL:
 "neighbourcell intra","LTE",2300,331,-20,-91,-61,0,-,-,-,-,-
 "neighbourcell intra","LTE",2300,278,-13,-83,-49,0,-,-,-,-,-
OK
UserDevice> AT+MGPSNMEA
+MGPSNMEA:
 $GPGGA,202430.00,3857.082336,N,09515.316938,W,1,05,1.1,283.1,M,-32.0,M,,*53
 $GPRMC,202430.00,A,3857.082336,N,09515.316938,W,12.7,79.0,301123,2.5,E,A,V*5E
OK
UserDevice> AT+MMNEBCELL
+MMNEBCELL:
 "neighbourcell intra","LTE",2300,278,-12,-86,-52,0,-,-,-,-,-
 "neighbourcell intra","LTE",2300,331,-16,-91,-66,0,-,-,-,-,-
OK
UserDevice> AT+MGPSNMEA
+MGPSNMEA:
 $GPGGA,202434.00,3857.085570,N,09515.298143,W,1,05,1.1,281.1,M,-32.0,M,,*55
 $GPRMC,202434.00,A,3857.085570,N,09515.298143,W,13.8,82.0,301123,2.5,E,A,V*50
OK
AT+MGPSNMEA
+MGPSNMEA:
 $GPGGA,202435.00,3857.083508,N,09515.288388,W,1,05,1.1,281.8,M,-32.0,M,,*50
 $GPRMC,202435.00,A,3857.083508,N,09515.288388,W,16.9,88.6,301123,2.5,E,A,V*54
OK
UserDevice> AT+MMNEBCELL
+MMNEBCELL:
 "neighbourcell intra","LTE",2300,278,-11,-89,-58,0,-,-,-,-,-
 "neighbourcell intra","LTE",2300,331,-18,-95,-70,0,-,-,-,-,-
OK
UserDevice> AT+MGPSNMEA
+MGPSNMEA:
 $GPGGA,202439.00,3857.082962,N,09515.256357,W,1,07,0.9,282.9,M,-32.0,M,,*55
 $GPRMC,202439.00,A,3857.082962,N,09515.256357,W,20.9,88.8,301123,2.5,E,A,V*53
OK
UserDevice> AT+MMNEBCELL
+MMNEBCELL:
 "neighbourcell intra","LTE",2300,278,-13,-87,-53,0,-,-,-,-,-
 "neighbourcell intra","LTE",2300,331,-17,-92,-68,0,-,-,-,-,-
OK
UserDevice> AT+MGPSNMEA
+MGPSNMEA:
 $GPGGA,202443.00,3857.078291,N,09515.222741,W,1,07,0.9,283.9,M,-32.0,M,,*5B
 $GPRMC,202443.00,A,3857.078291,N,09515.222741,W,20.8,89.1,301123,2.5,E,A,V*55
OK
UserDevice> AT+MMNEBCELL
+MMNEBCELL:
 "neighbourcell intra","LTE",2300,278,-9,-84,-53,0,-,-,-,-,-
 "neighbourcell intra","LTE",2300,331,-19,-94,-65,0,-,-,-,-,-
OK
UserDevice> AT+MGPSNMEA
+MGPSNMEA:
 $GPGGA,202447.00,3857.080368,N,09515.194277,W,1,06,1.1,286.1,M,-32.0,M,,*54
 $GPRMC,202447.00,A,3857.080368,N,09515.194277,W,17.2,86.2,301123,2.5,E,A,V*5D
OK
UserDevice> AT+MMNEBCELL
+MMNEBCELL:
 "neighbourcell intra","LTE",2300,278,-12,-64,-30,0,-,-,-,-,-
OK
UserDevice> AT+MGPSNMEA
+MGPSNMEA:
 $GPGGA,202451.00,3857.080151,N,09515.170724,W,1,05,1.2,286.0,M,-32.0,M,,*53
 $GPRMC,202451.00,A,3857.080151,N,09515.170724,W,15.8,86.0,301123,2.4,E,A,V*50
OK
UserDevice> AT+MMNEBCELL
+MMNEBCELL:
 "neighbourcell intra","LTE",2300,278,-13,-64,-28,0,-,-,-,-,-
OK
UserDevice> AT+MGPSNMEA
+MGPSNMEA:
 $GPGGA,202455.00,3857.069537,N,09515.159063,W,1,04,1.2,288.4,M,-32.0,M,,*50
 $GPRMC,202455.00,A,3857.069537,N,09515.159063,W,9.2,125.1,301123,2.4,E,A,V*56
OK
UserDevice> AT+MMNEBCELL
+MMNEBCELL:
 "neighbourcell intra","LTE",2300,278,-9,-64,-35,0,-,-,-,-,-
OK
UserDevice> AT+MGPSNMEA
+MGPSNMEA:
 $GPGGA,202459.00,3857.074421,N,09515.163100,W,1,04,1.2,287.4,M,-32.0,M,,*54
 $GPRMC,202459.00,A,3857.074421,N,09515.163100,W,0.0,172.8,301123,2.4,E,A,V*5D
OK
UserDevice> AT+MMNEBCELL
+MMNEBCELL:
 "neighbourcell intra","LTE",2300,278,-11,-64,-32,0,-,-,-,-,-
OK
UserDevice> AT+MGPSNMEA
+MGPSNMEA:
 $GPGGA,202503.00,3857.077851,N,09515.167868,W,1,03,1.2,287.7,M,-32.0,M,,*55
 $GPRMC,202503.00,A,3857.077851,N,09515.167868,W,0.0,43.0,301123,2.4,E,A,V*63
OK
UserDevice> AT+MMNEBCELL
+MMNEBCELL:
 "neighbourcell intra","LTE",2300,278,-13,-63,-29,0,-,-,-,-,-
OK
UserDevice> AT+MGPSNMEA
+MGPSNMEA:
 $GPGGA,202507.00,3857.078044,N,09515.167947,W,1,03,1.2,288.6,M,-32.0,M,,*50
 $GPRMC,202507.00,A,3857.078044,N,09515.167947,W,0.0,43.0,301123,2.4,E,A,V*68
OK
UserDevice> AT+MMNEBCELL
+MMNEBCELL:
 "neighbourcell intra","LTE",2300,278,-13,-64,-31,0,-,-,-,-,-
OK
UserDevice> AT+MGPSNMEA
+MGPSNMEA:
 $GPGGA,202511.00,3857.078837,N,09515.167454,W,1,05,1.2,288.6,M,-32.0,M,,*52
 $GPRMC,202511.00,A,3857.078837,N,09515.167454,W,0.0,43.0,301123,2.4,E,A,V*6C
OK
UserDevice> +MMNEBCELL:
 "neighbourcell intra","LTE",2300,278,-13,-73,-39,0,-,-,-,-,-
OK
UserDevice> AT+MGPSNMEA
AT+MGPSNMEA
+MGPSNMEA:
 $GPGGA,202516.00,3857.075797,N,09515.144900,W,1,05,1.1,286.2,M,-32.0,M,,*59
 $GPRMC,202516.00,A,3857.075797,N,09515.144900,W,14.0,97.9,301123,2.4,E,A,V*5B
OK
UserDevice> AT+MMNEBCELL
+MMNEBCELL:
 "neighbourcell intra","LTE",2300,278,-14,-75,-37,0,-,-,-,-,-
OK
UserDevice> AT+MGPSNMEA
+MGPSNMEA:
 $GPGGA,202520.00,3857.075985,N,09515.125265,W,1,05,1.1,288.4,M,-32.0,M,,*56
 $GPRMC,202520.00,A,3857.075985,N,09515.125265,W,9.3,95.1,301123,2.4,E,A,V*69
OK
UserDevice> AT+MMNEBCELL
+MMNEBCELL:
 "neighbourcell intra","LTE",2300,278,-12,-70,-37,0,-,-,-,-,-
OK
UserDevice> AT+MGPSNMEA
+MGPSNMEA:
 $GPGGA,202524.00,3857.075948,N,09515.109249,W,1,04,1.1,287.3,M,-32.0,M,,*5A
 $GPRMC,202524.00,A,3857.075948,N,09515.109249,W,10.3,95.8,301123,2.4,E,A,V*5D
OK
UserDevice> AT+MMSVRCELL
+MMNEBCELL:
 "neighbourcell intra","LTE",2300,278,-12,-74,-42,0,-,-,-,-,-
OK
UserDevice> AT+MGPSNMEA
+MGPSNMEA:
 $GPGGA,202528.00,3857.076649,N,09515.100368,W,1,04,1.1,288.8,M,-32.0,M,,*54
 $GPRMC,202528.00,A,3857.076649,N,09515.100368,W,0.7,349.0,301123,2.4,E,A,V*58
OK
UserDevice> AT+MMNEBCELL
+MMNEBCELL:
 "neighbourcell intra","LTE",2300,278,-12,-75,-41,0,-,-,-,-,-
OK
UserDevice> AT+MGPSNMEA
+MGPSNMEA:
 $GPGGA,202532.00,3857.078901,N,09515.098094,W,1,03,1.2,288.7,M,-32.0,M,,*59
 $GPRMC,202532.00,A,3857.078901,N,09515.098094,W,1.4,351.4,301123,2.4,E,A,V*51
OK
UserDevice> AT+MMNEBCELL
+MMNEBCELL:
 "neighbourcell intra","LTE",2300,278,-13,-74,-39,0,-,-,-,-,-
OK
UserDevice> AT+MGPSNMEA
+MGPSNMEA:
 $GPGGA,202536.00,3857.077515,N,09515.094772,W,1,03,1.2,290.8,M,-32.0,M,,*5E
 $GPRMC,202536.00,A,3857.077515,N,09515.094772,W,0.0,311.0,301123,2.4,E,A,V*55
OK
UserDevice> AT+MMNEBCELL
+MMNEBCELL:
 "neighbourcell intra","LTE",2300,278,-14,-74,-39,0,-,-,-,-,-
OK
UserDevice> UserDevice> AT+MMNEBCELL
+MMNEBCELL:
 "neighbourcell intra","LTE",2300,278,-13,-74,-40,0,-,-,-,-,-
 "neighbourcell intra","LTE",2300,101,-20,-93,-55,0,-,-,-,-,-
OK
UserDevice> AT+MGPSNMEA
+MGPSNMEA:
 $GPGGA,202545.00,3857.077831,N,09515.092359,W,1,04,1.1,285.4,M,-32.0,M,,*56
 $GPRMC,202545.00,A,3857.077831,N,09515.092359,W,0.0,311.0,301123,2.4,E,A,V*51
OK
UserDevice> AT+MMNEBCELL
+MMNEBCELL:
 "neighbourcell intra","LTE",2300,278,-13,-74,-40,0,-,-,-,-,-
OK
UserDevice> AT+MGPSNMEA
+MGPSNMEA:
 $GPGGA,202549.00,3857.079171,N,09515.092268,W,1,04,1.1,282.9,M,-32.0,M,,*50
 $GPRMC,202549.00,A,3857.079171,N,09515.092268,W,0.0,311.0,301123,2.4,E,A,V*5D
OK
UserDevice> AT+MMNEBCELL
+MMNEBCELL:
 "neighbourcell intra","LTE",2300,278,-13,-70,-39,0,-,-,-,-,-
OK
UserDevice> AT+MGPSNMEA
+MGPSNMEA:
 $GPGGA,202553.00,3857.079470,N,09515.092110,W,1,03,1.2,282.7,M,-32.0,M,,*59
 $GPRMC,202553.00,A,3857.079470,N,09515.092110,W,0.0,311.0,301123,2.4,E,A,V*5E
OK
UserDevice> AT+MMNEBCELL
+MMNEBCELL:
 "neighbourcell intra","LTE",2300,278,-13,-73,-40,0,-,-,-,-,-
 "neighbourcell intra","LTE",2300,387,-20,-83,-49,0,-,-,-,-,-
OK
UserDevice> +MGPSNMEA:
 $GPGGA,202557.00,3857.078466,N,09515.088085,W,1,02,1.7,280.4,M,-32.0,M,,*58
 $GPRMC,202557.00,A,3857.078466,N,09515.088085,W,0.0,169.7,301123,2.4,E,A,V*50
OK
UserDevice> AT+MMSVRCELL
+MMNEBCELL:
 "neighbourcell intra","LTE",2300,278,-12,-72,-39,0,-,-,-,-,-
OK
UserDevice> AT+MGPSNMEA
AT+MGPSNMEA
+MGPSNMEA:
 $GPGGA,,,,,,0,,,,,,,,*66
 $GPRMC,,V,,,,,,,,,,N*53
OK
UserDevice> AT+MMNEBCELL
+MMNEBCELL:
 "neighbourcell intra","LTE",2300,278,-14,-67,-31,0,-,-,-,-,-
OK
UserDevice> AT+MGPSNMEA
+MGPSNMEA:
 $GPGGA,,,,,,0,,,,,,,,*66
 $GPRMC,,V,,,,,,,,,,N*53
OK
UserDevice> AT+MMNEBCELL
+MMNEBCELL:
 "neighbourcell intra","LTE",2300,278,-13,-71,-38,0,-,-,-,-,-
OK
UserDevice> AT+MGPSNMEA
+MGPSNMEA:
 $GPGGA,,,,,,0,,,,,,,,*66
 $GPRMC,,V,,,,,,,,,,N*53
OK
UserDevice> AT+MMSVRCELL
+MMNEBCELL:
 "neighbourcell intra","LTE",2300,278,-12,-70,-38,0,-,-,-,-,-
OK
UserDevice> AT+MGPSNMEA
+MGPSNMEA:
 $GPGGA,202614.00,3857.079483,N,09515.092094,W,1,03,1.3,282.9,M,-32.0,M,,*57
 $GPRMC,202614.00,A,3857.079483,N,09515.092094,W,0.0,311.0,301123,2.4,E,A,V*5F
OK
UserDevice> AT+MMNEBCELL
+MMNEBCELL:
 "neighbourcell intra","LTE",2300,278,-10,-70,-41,0,-,-,-,-,-
OK
UserDevice> AT+MGPSNMEA
+MGPSNMEA:
 $GPGGA,202618.00,3857.079475,N,09515.092093,W,1,03,1.5,282.9,M,-32.0,M,,*53
 $GPRMC,202618.00,A,3857.079475,N,09515.092093,W,0.0,311.0,301123,2.4,E,A,V*5D
OK
UserDevice> AT+MMNEBCELL
+MMNEBCELL:
 "neighbourcell intra","LTE",2300,278,-10,-71,-40,0,-,-,-,-,-
OK
UserDevice> AT+MGPSNMEA
+MGPSNMEA:
 $GPGGA,202623.00,3857.079474,N,09515.092094,W,1,03,2.5,283.1,M,-32.0,M,,*57
 $GPRMC,202623.00,A,3857.079474,N,09515.092094,W,0.0,311.0,301123,2.4,E,A,V*53
OK
UserDevice> AT+MMNEBCELL
+MMNEBCELL:
 "neighbourcell intra","LTE",2300,278,-13,-68,-35,0,-,-,-,-,-
OK
UserDevice> AT+MGPSNMEA
+MGPSNMEA:
 $GPGGA,202627.00,3857.079459,N,09515.092075,W,1,02,2.2,283.2,M,-32.0,M,,*56
 $GPRMC,202627.00,A,3857.079459,N,09515.092075,W,0.0,311.0,301123,2.4,E,A,V*57
OK
UserDevice> AT+MMNEBCELL
+MMNEBCELL:
 "neighbourcell intra","LTE",2300,278,-14,-76,-42,0,-,-,-,-,-
OK
UserDevice> AT+MGPSNMEA
+MGPSNMEA:
 $GPGGA,202631.00,3857.079457,N,09515.092073,W,1,02,500.0,283.3,M,-32.0,M,,*5D
 $GPRMC,202631.00,A,3857.079457,N,09515.092073,W,0.0,311.0,301123,2.4,E,A,V*58
OK
UserDevice> AT+MMNEBCELL
+MMNEBCELL:
 "neighbourcell intra","LTE",2300,278,-14,-76,-42,0,-,-,-,-,-
 "neighbourcell intra","LTE",2300,387,-18,-83,-56,0,-,-,-,-,-
OK
UserDevice> AT+MGPSNMEA
+MGPSNMEA:
 $GPGGA,202635.00,3857.079458,N,09515.092071,W,1,03,2.1,283.0,M,-32.0,M,,*50
 $GPRMC,202635.00,A,3857.079458,N,09515.092071,W,0.0,311.0,301123,2.4,E,A,V*51
OK
UserDevice> AT+MMNEBCELL
+MMNEBCELL:
 "neighbourcell intra","LTE",2300,278,-12,-73,-40,0,-,-,-,-,-
 "neighbourcell intra","LTE",2300,387,-20,-83,-52,0,-,-,-,-,-
OK
UserDevice> AT+MGPSNMEA
+MGPSNMEA:
 $GPGGA,202639.00,3857.079456,N,09515.092071,W,1,03,2.5,282.8,M,-32.0,M,,*5F
 $GPRMC,202639.00,A,3857.079456,N,09515.092071,W,0.0,311.0,301123,2.4,E,A,V*53
OK
UserDevice> AT+MMNEBCELL
+MMNEBCELL:
 "neighbourcell intra","LTE",2300,278,-11,-71,-37,0,-,-,-,-,-
 "neighbourcell intra","LTE",2300,277,-20,-84,-49,0,-,-,-,-,-
OK
UserDevice> AT+MGPSNMEA
+MGPSNMEA:
 $GPGGA,202643.00,3857.079455,N,09515.092070,W,1,03,2.5,282.9,M,-32.0,M,,*51
 $GPRMC,202643.00,A,3857.079455,N,09515.092070,W,0.0,311.0,301123,2.4,E,A,V*5C
OK
UserDevice> AT+MMNEBCELL
+MMNEBCELL:
 "neighbourcell intra","LTE",2300,278,-14,-72,-37,0,-,-,-,-,-
OK
UserDevice> AT+MGPSNMEA
+MGPSNMEA:
 $GPGGA,202647.00,3857.079455,N,09515.092070,W,1,03,3.0,283.1,M,-32.0,M,,*58
 $GPRMC,202647.00,A,3857.079455,N,09515.092070,W,0.0,311.0,301123,2.4,E,A,V*58
OK
UserDevice> AT+MMNEBCELL
+MMNEBCELL:
 "neighbourcell intra","LTE",2300,278,-12,-71,-39,0,-,-,-,-,-
 "neighbourcell intra","LTE",2300,277,-20,-88,-51,0,-,-,-,-,-
OK
UserDevice> AT+MGPSNMEA
+MGPSNMEA:
 $GPGGA,,,,,,0,,,,,,,,*66
 $GPRMC,,V,,,,,,,,,,N*53
OK
UserDevice> AT+MMNEBCELL
+MMNEBCELL:
 "neighbourcell intra","LTE",2300,278,-14,-72,-39,0,-,-,-,-,-
 "neighbourcell intra","LTE",2300,277,-20,-84,-50,0,-,-,-,-,-
OK
UserDevice> AT+MGPSNMEA
+MGPSNMEA:
 $GPGGA,,,,,,0,,,,,,,,*66
 $GPRMC,,V,,,,,,,,,,N*53
OK
UserDevice> AT+MGPSNMEA
+MGPSNMEA:
 $GPGGA,,,,,,0,,,,,,,,*66
 $GPRMC,,V,,,,,,,,,,N*53
OK
UserDevice> AT+MMNEBCELL
+MMNEBCELL:
 "neighbourcell intra","LTE",2300,278,-17,-87,-57,0,-,-,-,-,-
 "neighbourcell intra","LTE",2300,277,-13,-77,-44,0,-,-,-,-,-
OK
UserDevice> AT+MMNEBCELL
+MMNEBCELL:
 "neighbourcell intra","LTE",2300,278,-18,-83,-55,0,-,-,-,-,-
 "neighbourcell intra","LTE",2300,277,-15,-78,-43,0,-,-,-,-,-
 "neighbourcell intra","LTE",2300,388,-17,-80,-55,0,-,-,-,-,-
 "neighbourcell intra","LTE",2300,387,-20,-93,-55,0,-,-,-,-,-
OK
UserDevice> AT+MGPSNMEA
+MGPSNMEA:
 $GPGGA,,,,,,0,,,,,,,,*66
 $GPRMC,,V,,,,,,,,,,N*53
OK
UserDevice> AT+MMNEBCELL
+MMNEBCELL:
 "neighbourcell intra","LTE",2300,278,-18,-90,-62,0,-,-,-,-,-
 "neighbourcell intra","LTE",2300,277,-15,-86,-50,0,-,-,-,-,-
 "neighbourcell intra","LTE",2300,388,-17,-87,-62,0,-,-,-,-,-
 "neighbourcell intra","LTE",2300,387,-13,-86,-62,0,-,-,-,-,-
OK
UserDevice> AT+MGPSNMEA
+MGPSNMEA:
 $GPGGA,202727.00,3857.079452,N,09515.092051,W,1,05,2.0,290.7,M,-32.0,M,,*58
 $GPRMC,202727.00,A,3857.079452,N,09515.092051,W,0.0,311.0,301123,2.4,E,A,V*5B
OK
UserDevice> AT+MMNEBCELL
+MMNEBCELL:
 "neighbourcell intra","LTE",2300,278,-17,-81,-55,0,-,-,-,-,-
 "neighbourcell intra","LTE",2300,277,-15,-78,-42,0,-,-,-,-,-
 "neighbourcell intra","LTE",2300,387,-20,-88,-55,0,-,-,-,-,-
OK
UserDevice> AT+MGPSNMEA
+MGPSNMEA:
 $GPGGA,202731.00,3857.078514,N,09514.978334,W,1,07,0.9,280.5,M,-32.0,M,,*5B
 $GPRMC,202731.00,A,3857.078514,N,09514.978334,W,11.8,90.1,301123,2.4,E,A,V*51
OK
UserDevice> AT+MMNEBCELL
+MMNEBCELL:
 "neighbourcell intra","LTE",2300,277,-15,-82,-46,0,43,7,6,4,255
 "neighbourcell intra","LTE",2300,278,-16,-84,-59,0,42,7,6,4,255
 "neighbourcell intra","LTE",2300,387,-17,-85,-60,0,40,7,6,4,255
 "neighbourcell inter","LTE",5230,-,-,-,-,-,-,0,6,1
OK
UserDevice> AT+MGPSNMEA
+MGPSNMEA:
 $GPGGA,202735.00,3857.078029,N,09514.963953,W,1,07,0.9,285.1,M,-32.0,M,,*54
 $GPRMC,202735.00,A,3857.078029,N,09514.963953,W,10.0,98.1,301123,2.4,E,A,V*5E
OK
UserDevice> AT+MMNEBCELL
+MMNEBCELL:
 "neighbourcell intra","LTE",2300,277,-15,-83,-46,0,-,-,-,-,-
 "neighbourcell intra","LTE",2300,388,-17,-86,-59,0,-,-,-,-,-
 "neighbourcell intra","LTE",2300,278,-18,-86,-59,0,-,-,-,-,-
OK
UserDevice> AT+MGPSNMEA
+MGPSNMEA:
 $GPGGA,202739.00,3857.077618,N,09514.950836,W,1,05,1.3,281.3,M,-32.0,M,,*5E
 $GPRMC,202739.00,A,3857.077618,N,09514.950836,W,9.3,92.8,301123,2.4,E,A,V*63
OK
UserDevice> AT+MMNEBCELL
+MMNEBCELL:
 "neighbourcell intra","LTE",2300,277,-16,-83,-47,0,-,-,-,-,-
 "neighbourcell intra","LTE",2300,388,-20,-91,-60,0,-,-,-,-,-
 "neighbourcell intra","LTE",2300,278,-14,-84,-59,0,-,-,-,-,-
OK
UserDevice> AT+MGPSNMEA
+MGPSNMEA:
 $GPGGA,202744.00,3857.074386,N,09514.947136,W,1,06,1.0,279.7,M,-32.0,M,,*59
 $GPRMC,202744.00,A,3857.074386,N,09514.947136,W,2.2,137.5,301123,2.4,E,A,V*5E
OK
UserDevice> AT+MMNEBCELL
+MMNEBCELL:
 "neighbourcell intra","LTE",2300,277,-14,-79,-45,0,46,7,6,4,255
 "neighbourcell intra","LTE",2300,278,-18,-83,-56,0,42,7,6,4,255
 "neighbourcell inter","LTE",5230,-,-,-,-,-,-,0,6,1
OK
UserDevice> AT+MGPSNMEA
+MGPSNMEA:
 $GPGGA,202748.00,3857.078777,N,09514.946734,W,1,06,1.0,280.0,M,-32.0,M,,*57
 $GPRMC,202748.00,A,3857.078777,N,09514.946734,W,0.0,91.7,301123,2.4,E,A,V*6E
OK
UserDevice> AT+MMNEBCELL
+MMNEBCELL:
 "neighbourcell intra","LTE",2300,277,-16,-83,-46,0,-,-,-,-,-
 "neighbourcell intra","LTE",2300,331,-15,-81,-58,0,-,-,-,-,-
 "neighbourcell intra","LTE",2300,278,-16,-86,-58,0,-,-,-,-,-
OK
UserDevice> AT+MGPSNMEA
+MGPSNMEA:
 $GPGGA,202752.00,3857.079717,N,09514.946124,W,1,07,0.9,276.7,M,-32.0,M,,*5B
 $GPRMC,202752.00,A,3857.079717,N,09514.946124,W,0.0,91.7,301123,2.4,E,A,V*65
OK
UserDevice> AT+MMNEBCELL
+MMNEBCELL:
 "neighbourcell intra","LTE",2300,277,-15,-80,-44,0,-,-,-,-,-
 "neighbourcell intra","LTE",2300,278,-17,-83,-57,0,-,-,-,-,-
 "neighbourcell intra","LTE",2300,388,-15,-81,-57,0,-,-,-,-,-
 "neighbourcell intra","LTE",2300,331,-16,-82,-57,0,-,-,-,-,-
OK
UserDevice> AT+MGPSNMEA
+MGPSNMEA:
 $GPGGA,202756.00,3857.082635,N,09514.944092,W,1,06,1.3,273.7,M,-32.0,M,,*5B
 $GPRMC,202756.00,A,3857.082635,N,09514.944092,W,5.8,10.7,301123,2.4,E,A,V*6E
OK
UserDevice> AT+MMNEBCELL
+MMNEBCELL:
 "neighbourcell intra","LTE",2300,388,-11,-82,-49,0,40,7,6,4,255
OK
UserDevice> AT+MGPSNMEA
+MGPSNMEA:
 $GPGGA,202800.00,3857.099517,N,09514.944534,W,1,06,1.3,274.7,M,-32.0,M,,*50
 $GPRMC,202800.00,A,3857.099517,N,09514.944534,W,10.2,0.1,301123,2.4,E,A,V*6B
OK
UserDevice> AT+MMNEBCELL
+MMNEBCELL:
 "neighbourcell intra","LTE",2300,277,-15,-85,-50,0,40,7,6,4,255
 "neighbourcell intra","LTE",2300,387,-15,-87,-62,0,38,7,6,4,255
 "neighbourcell intra","LTE",2300,278,-20,-92,-62,0,33,7,6,4,255
 "neighbourcell inter","LTE",5230,-,-,-,-,-,-,0,6,1
OK
UserDevice> AT+MGPSNMEA
+MGPSNMEA:
 $GPGGA,202804.00,3857.107549,N,09514.942795,W,1,06,1.5,272.7,M,-32.0,M,,*56
 $GPRMC,202804.00,A,3857.107549,N,09514.942795,W,8.2,4.4,301123,2.4,E,A,V*55
OK
UserDevice> AT+MMNEBCELL
+MMNEBCELL:
 "neighbourcell intra","LTE",2300,277,-17,-90,-52,0,-,-,-,-,-
 "neighbourcell intra","LTE",2300,387,-11,-83,-63,0,-,-,-,-,-
 "neighbourcell intra","LTE",2300,278,-20,-95,-63,0,-,-,-,-,-
 "neighbourcell intra","LTE",2300,388,-17,-91,-63,0,-,-,-,-,-
OK
UserDevice> AT+MGPSNMEA
+MGPSNMEA:
 $GPGGA,202808.00,3857.121089,N,09514.942268,W,1,06,1.0,273.6,M,-32.0,M,,*55
 $GPRMC,202808.00,A,3857.121089,N,09514.942268,W,7.6,7.0,301123,2.4,E,A,V*5F
OK
UserDevice> AT+MMNEBCELL
+MMNEBCELL:
 "neighbourcell intra","LTE",2300,277,-16,-90,-52,0,-,-,-,-,-
 "neighbourcell intra","LTE",2300,387,-12,-84,-64,0,-,-,-,-,-
 "neighbourcell intra","LTE",2300,388,-15,-87,-64,0,-,-,-,-,-
 "neighbourcell intra","LTE",2300,278,-20,-97,-64,0,-,-,-,-,-
OK
UserDevice> AT+MGPSNMEA
+MGPSNMEA:
 $GPGGA,202812.00,3857.134729,N,09514.939433,W,1,04,1.2,272.0,M,-32.0,M,,*54
 $GPRMC,202812.00,A,3857.134729,N,09514.939433,W,8.5,9.1,301123,2.4,E,A,V*5A
OK
UserDevice> AT+MMNEBCELL
+MMNEBCELL:
 "neighbourcell intra","LTE",2300,277,-14,-84,-50,0,-,-,-,-,-
 "neighbourcell intra","LTE",2300,387,-12,-82,-62,0,-,-,-,-,-
 "neighbourcell intra","LTE",2300,388,-16,-88,-62,0,-,-,-,-,-
OK
UserDevice> AT+MGPSNMEA
+MGPSNMEA:
 $GPGGA,202816.00,3857.144115,N,09514.937463,W,1,03,2.2,269.5,M,-32.0,M,,*5E
 $GPRMC,202816.00,A,3857.144115,N,09514.937463,W,5.2,5.5,301123,2.4,E,A,V*59
OK
UserDevice> AT+MMNEBCELL
+MMNEBCELL:
 "neighbourcell intra","LTE",2300,277,-14,-85,-49,0,-,-,-,-,-
 "neighbourcell intra","LTE",2300,387,-12,-82,-62,0,-,-,-,-,-
 "neighbourcell intra","LTE",2300,388,-17,-89,-62,0,-,-,-,-,-
 "neighbourcell intra","LTE",2300,278,-18,-90,-63,0,-,-,-,-,-
OK
UserDevice> AT+MGPSNMEA
+MGPSNMEA:
 $GPGGA,202821.00,3857.142761,N,09514.915842,W,1,03,5.2,269.1,M,-32.0,M,,*55
 $GPRMC,202821.00,A,3857.142761,N,09514.915842,W,5.2,69.6,301123,2.4,E,A,V*68
OK
UserDevice> AT+MMNEBCELL
+MMNEBCELL:
 "neighbourcell intra","LTE",2300,277,-14,-85,-49,0,-,-,-,-,-
 "neighbourcell intra","LTE",2300,387,-12,-82,-63,0,-,-,-,-,-
 "neighbourcell intra","LTE",2300,388,-17,-89,-63,0,-,-,-,-,-
 "neighbourcell intra","LTE",2300,278,-20,-99,-63,0,-,-,-,-,-
OK
UserDevice> AT+MGPSNMEA
+MGPSNMEA:
 $GPGGA,202825.00,3857.145073,N,09514.911844,W,1,03,3.2,269.8,M,-32.0,M,,*5F
 $GPRMC,202825.00,A,3857.145073,N,09514.911844,W,3.7,71.4,301123,2.4,E,A,V*65
OK
UserDevice> AT+MMNEBCELL
+MMNEBCELL:
 "neighbourcell intra","LTE",2300,277,-16,-84,-47,0,-,-,-,-,-
 "neighbourcell intra","LTE",2300,387,-11,-82,-63,0,-,-,-,-,-
OK
UserDevice> AT+MGPSNMEA
+MGPSNMEA:
 $GPGGA,202829.00,3857.145681,N,09514.912939,W,1,03,3.2,270.2,M,-32.0,M,,*52
 $GPRMC,202829.00,A,3857.145681,N,09514.912939,W,2.3,82.8,301123,2.4,E,A,V*6F
OK
UserDevice> AT+MMSVRCELL
+MMNEBCELL:
 "neighbourcell intra","LTE",2300,277,-16,-88,-50,0,-,-,-,-,-
 "neighbourcell intra","LTE",2300,387,-15,-87,-64,0,-,-,-,-,-
 "neighbourcell intra","LTE",2300,388,-15,-88,-64,0,-,-,-,-,-
OK
UserDevice> AT+MGPSNMEA
+MGPSNMEA:
 $GPGGA,202833.00,3857.145900,N,09514.918282,W,1,03,5.2,271.1,M,-32.0,M,,*5A
 $GPRMC,202833.00,A,3857.145900,N,09514.918282,W,1.8,57.4,301123,2.4,E,A,V*6F
OK
UserDevice> AT+MMNEBCELL
+MMNEBCELL:
 "neighbourcell intra","LTE",2300,277,-19,-91,-50,0,-,-,-,-,-
 "neighbourcell intra","LTE",2300,387,-14,-86,-63,0,-,-,-,-,-
 "neighbourcell intra","LTE",2300,388,-13,-88,-63,0,-,-,-,-,-
 "neighbourcell intra","LTE",2300,278,-20,-97,-63,0,-,-,-,-,-
OK
UserDevice> AT+MGPSNMEA
+MGPSNMEA:
 $GPGGA,202837.00,3857.149479,N,09514.923153,W,1,02,4.3,270.6,M,-32.0,M,,*51
 $GPRMC,202837.00,A,3857.149479,N,09514.923153,W,4.9,6.1,301123,2.4,E,A,V*56
OK
UserDevice> AT+MMNEBCELL
+MMNEBCELL:
 "neighbourcell intra","LTE",2300,277,-17,-90,-64,0,-,-,-,-,-
 "neighbourcell intra","LTE",2300,387,-13,-86,-64,0,-,-,-,-,-
 "neighbourcell intra","LTE",2300,388,-15,-89,-54,0,-,-,-,-,-
 "neighbourcell intra","LTE",2300,278,-20,-94,-64,0,-,-,-,-,-
OK
UserDevice> AT+MGPSNMEA
+MGPSNMEA:
 $GPGGA,,,,,,0,,,,,,,,*66
 $GPRMC,,V,,,,,,,,,,N*53
OK
UserDevice> AT+MMNEBCELL
+MMNEBCELL:
 "neighbourcell intra","LTE",2300,277,-18,-89,-63,0,-,-,-,-,-
 "neighbourcell intra","LTE",2300,387,-11,-82,-63,0,-,-,-,-,-
 "neighbourcell intra","LTE",2300,388,-14,-86,-50,0,-,-,-,-,-
OK
UserDevice> AT+MGPSNMEA
+MGPSNMEA:
 $GPGGA,202845.00,3857.175764,N,09514.913150,W,1,04,3.3,275.7,M,-32.0,M,,*51
 $GPRMC,202845.00,A,3857.175764,N,09514.913150,W,9.5,5.0,301123,2.4,E,A,V*50
OK
UserDevice> AT+MMNEBCELL
+MMNEBCELL:
 "neighbourcell intra","LTE",2300,388,-8,-78,-53,0,-,-,-,-,-
 "neighbourcell intra","LTE",2300,278,-20,-96,-64,0,-,-,-,-,-
 "neighbourcell intra","LTE",2300,277,-20,-94,-64,0,-,-,-,-,-
OK
UserDevice> AT+MGPSNMEA
+MGPSNMEA:
 $GPGGA,202849.00,3857.186946,N,09514.912761,W,1,04,3.3,274.6,M,-32.0,M,,*5A
 $GPRMC,202849.00,A,3857.186946,N,09514.912761,W,8.8,0.6,301123,2.4,E,A,V*54
OK
UserDevice> AT+MMNEBCELL
+MMNEBCELL:
 "neighbourcell intra","LTE",2300,388,-7,-74,-48,0,-,-,-,-,-
OK
UserDevice> AT+MGPSNMEA
+MGPSNMEA:
 $GPGGA,202853.00,3857.187803,N,09514.913204,W,1,04,3.3,273.1,M,-32.0,M,,*57
 $GPRMC,202853.00,A,3857.187803,N,09514.913204,W,2.6,2.3,301123,2.4,E,A,V*5A
OK
UserDevice> AT+MMNEBCELL
+MMNEBCELL:
 "neighbourcell intra","LTE",2300,388,-7,-73,-46,0,-,-,-,-,-
 "neighbourcell intra","LTE",2300,277,-20,-88,-60,0,-,-,-,-,-
OK
UserDevice> AT+MGPSNMEA
+MGPSNMEA:
 $GPGGA,202857.00,3857.189248,N,09514.919168,W,1,04,3.3,271.9,M,-32.0,M,,*51
 $GPRMC,202857.00,A,3857.189248,N,09514.919168,W,2.2,319.1,301123,2.4,E,A,V*59
OK
UserDevice> AT+MMNEBCELL
+MMNEBCELL:
 "neighbourcell intra","LTE",2300,388,-9,-77,-50,0,-,-,-,-,-
 "neighbourcell intra","LTE",2300,277,-15,-87,-59,0,-,-,-,-,-
 "neighbourcell intra","LTE",2300,278,-20,-94,-58,0,-,-,-,-,-
OK
UserDevice> AT+MGPSNMEA
+MGPSNMEA:
 $GPGGA,202902.00,3857.194439,N,09514.923947,W,1,04,3.3,270.5,M,-32.0,M,,*5D
 $GPRMC,202902.00,A,3857.194439,N,09514.923947,W,4.9,335.0,301123,2.4,E,A,V*5A
OK
UserDevice> AT+MMNEBCELL
+MMNEBCELL:
 "neighbourcell intra","LTE",2300,388,-11,-82,-48,0,-,-,-,-,-
 "neighbourcell intra","LTE",2300,277,-15,-88,-62,0,-,-,-,-,-
OK
UserDevice> AT+MGPSNMEA
+MGPSNMEA:
 $GPGGA,202906.00,3857.198327,N,09514.928084,W,1,03,5.3,270.8,M,-32.0,M,,*5C
 $GPRMC,202906.00,A,3857.198327,N,09514.928084,W,4.4,321.3,301123,2.4,E,A,V*5C
OK
UserDevice> AT+MMNEBCELL
+MMNEBCELL:
 "neighbourcell intra","LTE",2300,388,-11,-82,-50,0,-,-,-,-,-
 "neighbourcell intra","LTE",2300,277,-15,-83,-59,0,-,-,-,-,-
 "neighbourcell intra","LTE",2300,331,-20,-93,-60,0,-,-,-,-,-
 "neighbourcell intra","LTE",2300,278,-20,-92,-60,0,-,-,-,-,-
OK
UserDevice> AT+MGPSNMEA
+MGPSNMEA:
 $GPGGA,202910.00,3857.201244,N,09514.952237,W,1,03,4.7,271.9,M,-32.0,M,,*5E
 $GPRMC,202910.00,A,3857.201244,N,09514.952237,W,8.7,302.6,301123,2.4,E,A,V*50
OK
UserDevice> AT+MMNEBCELL
+MMNEBCELL:
 "neighbourcell intra","LTE",2300,388,-14,-87,-64,0,-,-,-,-,-
 "neighbourcell intra","LTE",2300,277,-15,-87,-53,0,-,-,-,-,-
 "neighbourcell intra","LTE",2300,278,-20,-99,-63,0,-,-,-,-,-
OK
UserDevice> AT+MGPSNMEA
+MGPSNMEA:
 $GPGGA,202914.00,3857.208541,N,09514.961891,W,1,04,3.2,270.6,M,-32.0,M,,*5C
 $GPRMC,202914.00,A,3857.208541,N,09514.961891,W,9.4,304.5,301123,2.4,E,A,V*5E
OK
UserDevice> +MMNEBCELL:
 "neighbourcell intra","LTE",2300,388,-14,-89,-65,0,-,-,-,-,-
 "neighbourcell intra","LTE",2300,277,-16,-89,-53,0,-,-,-,-,-
 "neighbourcell intra","LTE",2300,278,-20,-98,-65,0,-,-,-,-,-
OK
UserDevice> AT+MGPSNMEA
AT+MGPSNMEA
+MGPSNMEA:
 $GPGGA,202918.00,3857.213137,N,09514.969436,W,1,04,2.3,270.8,M,-32.0,M,,*58
 $GPRMC,202918.00,A,3857.213137,N,09514.969436,W,2.7,310.6,301123,2.4,E,A,V*5A
OK
UserDevice> AT+MMNEBCELL
+MMNEBCELL:
 "neighbourcell intra","LTE",2300,388,-15,-88,-65,0,-,-,-,-,-
 "neighbourcell intra","LTE",2300,277,-15,-89,-54,0,-,-,-,-,-
 "neighbourcell intra","LTE",2300,278,-20,-97,-65,0,-,-,-,-,-
OK
UserDevice> AT+MGPSNMEA
+MGPSNMEA:
 $GPGGA,202922.00,3857.201616,N,09514.968387,W,1,04,2.3,267.6,M,-32.0,M,,*52
 $GPRMC,202922.00,A,3857.201616,N,09514.968387,W,0.6,19.5,301123,2.4,E,A,V*62
OK
UserDevice> AT+MMNEBCELL
+MMNEBCELL:
 "neighbourcell intra","LTE",2300,388,-11,-88,-68,0,-,-,-,-,-
 "neighbourcell intra","LTE",2300,277,-17,-90,-53,0,-,-,-,-,-
OK
UserDevice> +MGPSNMEA:
 $GPGGA,202926.00,3857.200281,N,09514.971218,W,1,03,6.3,267.4,M,-32.0,M,,*53
 $GPRMC,202926.00,A,3857.200281,N,09514.971218,W,0.7,98.1,301123,2.4,E,A,V*6E
OK
UserDevice> AT+MMSVRCELL
+MMNEBCELL:
 "neighbourcell intra","LTE",2300,388,-11,-88,-68,0,-,-,-,-,-
 "neighbourcell intra","LTE",2300,277,-15,-90,-53,0,-,-,-,-,-
OK
UserDevice> AT+MGPSNMEA
+MGPSNMEA:
 $GPGGA,,,,,,0,,,,,,,,*66
 $GPRMC,,V,,,,,,,,,,N*53
OK
UserDevice> AT+MMNEBCELL
+MMNEBCELL:
 "neighbourcell intra","LTE",2300,388,-13,-88,-66,0,-,-,-,-,-
 "neighbourcell intra","LTE",2300,277,-15,-88,-53,0,-,-,-,-,-
 "neighbourcell intra","LTE",2300,363,-20,-96,-66,0,-,-,-,-,-
OK
UserDevice> AT+MGPSNMEA
+MGPSNMEA:
 $GPGGA,202935.00,3857.204583,N,09514.976080,W,1,04,1.5,265.0,M,-32.0,M,,*54
 $GPRMC,202935.00,A,3857.204583,N,09514.976080,W,1.4,331.0,301123,2.4,E,A,V*5A
OK
UserDevice> AT+MMNEBCELL
+MMNEBCELL:
 "neighbourcell intra","LTE",2300,388,-10,-86,-65,0,-,-,-,-,-
 "neighbourcell intra","LTE",2300,277,-16,-88,-52,0,-,-,-,-,-
 "neighbourcell intra","LTE",2300,278,-18,-91,-65,0,-,-,-,-,-
OK
UserDevice> AT+MGPSNMEA
+MGPSNMEA:
 $GPGGA,202939.00,3857.203510,N,09514.981070,W,1,06,1.0,264.6,M,-32.0,M,,*52
 $GPRMC,202939.00,A,3857.203510,N,09514.981070,W,4.4,264.1,301123,2.4,E,A,V*59
OK
UserDevice> AT+MMNEBCELL
+MMNEBCELL:
 "neighbourcell intra","LTE",2300,388,-9,-84,-55,0,-,-,-,-,-
 "neighbourcell intra","LTE",2300,277,-17,-95,-69,0,-,-,-,-,-
 "neighbourcell intra","LTE",2300,278,-20,-97,-69,0,-,-,-,-,-
OK
UserDevice> AT+MGPSNMEA
+MGPSNMEA:
 $GPGGA,202943.00,3857.204722,N,09514.987418,W,1,06,1.0,271.8,M,-32.0,M,,*5D
 $GPRMC,202943.00,A,3857.204722,N,09514.987418,W,4.4,276.6,301123,2.4,E,A,V*58
OK
UserDevice> AT+MMNEBCELL
+MMNEBCELL:
 "neighbourcell intra","LTE",2300,388,-13,-89,-54,0,-,-,-,-,-
 "neighbourcell intra","LTE",2300,277,-14,-89,-66,0,-,-,-,-,-
OK
UserDevice> AT+MGPSNMEA
+MGPSNMEA:
 $GPGGA,202947.00,3857.207321,N,09514.994611,W,1,06,1.0,266.4,M,-32.0,M,,*5E
 $GPRMC,202947.00,A,3857.207321,N,09514.994611,W,4.9,277.0,301123,2.4,E,A,V*5B
OK
UserDevice> AT+MMNEBCELL
+MMNEBCELL:
 "neighbourcell intra","LTE",2300,388,-13,-89,-55,0,-,-,-,-,-
 "neighbourcell intra","LTE",2300,277,-15,-90,-68,0,-,-,-,-,-
 "neighbourcell intra","LTE",2300,278,-17,-93,-68,0,-,-,-,-,-
OK
UserDevice> AT+MGPSNMEA
+MGPSNMEA:
 $GPGGA,202951.00,3857.206372,N,09514.999810,W,1,08,0.8,263.6,M,-32.0,M,,*5C
 $GPRMC,202951.00,A,3857.206372,N,09514.999810,W,2.7,266.8,301123,2.4,E,A,V*59
OK
UserDevice> AT+MMNEBCELL
+MMNEBCELL:
 "neighbourcell intra","LTE",2300,388,-13,-90,-66,0,-,-,-,-,-
 "neighbourcell intra","LTE",2300,277,-15,-90,-54,0,-,-,-,-,-
 "neighbourcell intra","LTE",2300,278,-19,-97,-66,0,-,-,-,-,-
OK
UserDevice> AT+MGPSNMEA
+MGPSNMEA:
 $GPGGA,202955.00,3857.206040,N,09515.001132,W,1,08,0.8,263.7,M,-32.0,M,,*5B
 $GPRMC,202955.00,A,3857.206040,N,09515.001132,W,1.0,266.7,301123,2.4,E,A,V*54
OK
UserDevice> AT+MGPSNMEA
+MMSRVCELL:
 "servingcell","NOCONN","LTE","FDD",311,480,34D8716,277,2300,4,5,5,D806,-91,-16,-54,10,-
OK
UserDevice> AT+MMNEBCELL
UserDevice> AT+MGPSNMEA
+MMSRVCELL:
 "servingcell","NOCONN","LTE","FDD",311,480,34F0816,388,2300,4,5,5,D806,-85,-10,-55,11,-
OK
UserDevice> AT+MMNEBCELL
UserDevice> AT+MGPSNMEA
+MGPSNMEA:
 $GPGGA,203008.00,3857.204846,N,09515.003410,W,1,06,0.9,266.3,M,-32.0,M,,*5E
 $GPRMC,203008.00,A,3857.204846,N,09515.003410,W,0.0,266.3,301123,2.4,E,A,V*5A
OK
UserDevice> AT+MGPSNMEA
+MGPSNMEA:
 $GPGGA,203327.00,3857.197537,N,09515.061768,W,1,09,0.7,271.8,M,-32.0,M,,*56
 $GPRMC,203327.00,A,3857.197537,N,09515.061768,W,4.7,277.7,301123,2.4,E,A,V*59
OK
UserDevice>  "neighbourcell intra","LTE",2300,388,-13,-90,-69,0,-,-,-,-,-
 "neighbourcell intra","LTE",2300,119,-20,-105,-71,0,-,-,-,-,-
 "neighbourcell intra","LTE",2300,277,-20,-98,-69,0,-,-,-,-,-
 "neighbourcell intra","LTE",2300,284,-12,-91,-57,0,-,-,-,-,-
 "neighbourcell intra","LTE",2300,278,-20,-98,-69,0,-,-,-,-,-
OK
UserDevice> AT+MMNEBCELL
AT+MGPSNMEA
+MGPSNMEA:
 $GPGGA,203332.00,3857.206954,N,09515.067164,W,1,09,0.7,272.6,M,-32.0,M,,*51
 $GPRMC,203332.00,A,3857.206954,N,09515.067164,W,13.6,2.0,301123,2.4,E,A,V*63
OK
UserDevice> AT+MMNEBCELL
+MMNEBCELL:
 "neighbourcell intra","LTE",2300,331,-15,-93,-67,0,-,-,-,-,-
 "neighbourcell intra","LTE",2300,278,-16,-94,-67,0,-,-,-,-,-
 "neighbourcell intra","LTE",2300,389,-17,-93,-67,0,-,-,-,-,-
 "neighbourcell intra","LTE",2300,284,-14,-91,-56,0,-,-,-,-,-
 "neighbourcell intra","LTE",2300,363,-20,-98,-67,0,-,-,-,-,-
OK
UserDevice> AT+MGPSNMEA
+MGPSNMEA:
 $GPGGA,203336.00,3857.226162,N,09515.067025,W,1,09,0.7,274.5,M,-32.0,M,,*5B
 $GPRMC,203336.00,A,3857.226162,N,09515.067025,W,20.6,0.5,301123,2.4,E,A,V*6B
OK
UserDevice> AT+MMNEBCELL
+MMNEBCELL:
 "neighbourcell intra","LTE",2300,331,-15,-91,-67,0,-,-,-,-,-
 "neighbourcell intra","LTE",2300,284,-16,-92,-67,0,-,-,-,-,-
 "neighbourcell intra","LTE",2300,363,-16,-93,-69,0,-,-,-,-,-
 "neighbourcell intra","LTE",2300,389,-16,-95,-59,0,-,-,-,-,-
 "neighbourcell intra","LTE",2300,278,-17,-93,-67,0,-,-,-,-,-
OK
UserDevice> AT+MGPSNMEA
+MGPSNMEA:
 $GPGGA,203340.00,3857.250153,N,09515.066852,W,1,09,0.7,275.4,M,-32.0,M,,*50
 $GPRMC,203340.00,A,3857.250153,N,09515.066852,W,21.5,0.4,301123,2.4,E,A,V*63
OK
UserDevice> AT+MMSVRCELL
+MMNEBCELL:
 "neighbourcell intra","LTE",2300,389,-8,-86,-57,0,-,-,-,-,-
 "neighbourcell intra","LTE",2300,284,-15,-91,-67,0,-,-,-,-,-
 "neighbourcell intra","LTE",2300,278,-20,-97,-67,0,-,-,-,-,-
 "neighbourcell intra","LTE",2300,331,-17,-94,-66,0,-,-,-,-,-
OK
UserDevice> AT+MGPSNMEA
+MGPSNMEA:
 $GPGGA,203344.00,3857.274144,N,09515.065713,W,1,09,0.7,277.1,M,-32.0,M,,*5A
 $GPRMC,203344.00,A,3857.274144,N,09515.065713,W,19.3,0.1,301123,2.4,E,A,V*66
OK
UserDevice> AT+MMNEBCELL
+MMNEBCELL:
 "neighbourcell intra","LTE",2300,389,-10,-87,-56,0,-,-,-,-,-
 "neighbourcell intra","LTE",2300,284,-10,-86,-69,0,-,-,-,-,-
 "neighbourcell intra","LTE",2300,278,-20,-98,-69,0,-,-,-,-,-
 "neighbourcell intra","LTE",2300,331,-17,-94,-69,0,-,-,-,-,-
OK
UserDevice> AT+MGPSNMEA
+MGPSNMEA:
 $GPGGA,203348.00,3857.292539,N,09515.066266,W,1,09,0.7,280.8,M,-32.0,M,,*55
 $GPRMC,203348.00,A,3857.292539,N,09515.066266,W,13.3,356.9,301123,2.4,E,A,V*6A
OK
UserDevice> AT+MMNEBCELL
+MMNEBCELL:
 "neighbourcell intra","LTE",2300,389,-11,-86,-54,0,-,-,-,-,-
 "neighbourcell intra","LTE",2300,284,-14,-89,-67,0,-,-,-,-,-
 "neighbourcell intra","LTE",2300,331,-15,-88,-66,0,-,-,-,-,-
OK
UserDevice> AT+MGPSNMEA
+MGPSNMEA:
 $GPGGA,203352.00,3857.302206,N,09515.067822,W,1,09,0.7,282.4,M,-32.0,M,,*58
 $GPRMC,203352.00,A,3857.302206,N,09515.067822,W,3.0,343.8,301123,2.4,E,A,V*5E
OK
UserDevice> AT+MMNEBCELL
+MMNEBCELL:
 "neighbourcell intra","LTE",2300,389,-10,-85,-54,0,-,-,-,-,-
 "neighbourcell intra","LTE",2300,284,-13,-88,-64,0,-,-,-,-,-
 "neighbourcell intra","LTE",2300,331,-15,-90,-64,0,-,-,-,-,-
 "neighbourcell intra","LTE",2300,278,-20,-101,-65,0,-,-,-,-,-
OK
UserDevice> AT+MGPSNMEA
+MGPSNMEA:
 $GPGGA,203356.00,3857.303224,N,09515.068250,W,1,09,0.7,282.0,M,-32.0,M,,*59
 $GPRMC,203356.00,A,3857.303224,N,09515.068250,W,1.3,343.5,301123,2.4,E,A,V*57
OK
UserDevice> AT+MMNEBCELL
+MMNEBCELL:
 "neighbourcell intra","LTE",2300,389,-9,-84,-53,0,-,-,-,-,-
 "neighbourcell intra","LTE",2300,284,-14,-91,-63,0,-,-,-,-,-
 "neighbourcell intra","LTE",2300,331,-18,-95,-63,0,-,-,-,-,-
 "neighbourcell intra","LTE",2300,278,-20,-98,-63,0,-,-,-,-,-
OK
UserDevice> AT+MGPSNMEA
+MGPSNMEA:
 $GPGGA,203400.00,3857.308737,N,09515.069661,W,1,09,0.7,281.2,M,-32.0,M,,*57
 $GPRMC,203400.00,A,3857.308737,N,09515.069661,W,4.2,336.8,301123,2.4,E,A,V*53
OK
UserDevice> AT+MMNEBCELL
+MMNEBCELL:
 "neighbourcell intra","LTE",2300,389,-9,-80,-51,0,-,-,-,-,-
 "neighbourcell intra","LTE",2300,284,-15,-85,-59,0,-,-,-,-,-
 "neighbourcell intra","LTE",2300,278,-20,-96,-59,0,-,-,-,-,-
 "neighbourcell intra","LTE",2300,195,-20,-96,-62,0,-,-,-,-,-
 "neighbourcell intra","LTE",2300,331,-20,-89,-59,0,-,-,-,-,-
OK
UserDevice> AT+MGPSNMEA
+MGPSNMEA:
 $GPGGA,203404.00,3857.314143,N,09515.069069,W,1,09,0.7,282.6,M,-32.0,M,,*52
 $GPRMC,203404.00,A,3857.314143,N,09515.069069,W,5.5,35.3,301123,2.4,E,A,V*6C
OK
UserDevice> AT+MMNEBCELL
+MMNEBCELL:
 "neighbourcell intra","LTE",2300,389,-15,-89,-55,0,-,-,-,-,-
 "neighbourcell intra","LTE",2300,284,-11,-85,-64,0,-,-,-,-,-
 "neighbourcell intra","LTE",2300,331,-20,-97,-64,0,-,-,-,-,-
 "neighbourcell intra","LTE",2300,387,-20,-99,-64,0,-,-,-,-,-
OK
UserDevice> AT+MGPSNMEA
+MGPSNMEA:
 $GPGGA,203408.00,3857.317708,N,09515.059857,W,1,09,0.7,280.8,M,-32.0,M,,*5E
 $GPRMC,203408.00,A,3857.317708,N,09515.059857,W,11.0,73.0,301123,2.4,E,A,V*5D
OK
UserDevice> AT+MMNEBCELL
+MMNEBCELL:
 "neighbourcell intra","LTE",2300,389,-16,-87,-61,0,-,-,-,-,-
 "neighbourcell intra","LTE",2300,284,-11,-82,-52,0,-,-,-,-,-
 "neighbourcell intra","LTE",2300,384,-20,-92,-62,0,-,-,-,-,-
 "neighbourcell intra","LTE",2300,278,-20,-100,-62,0,-,-,-,-,-
OK
UserDevice> AT+MGPSNMEA
+MGPSNMEA:
 $GPGGA,203412.00,3857.318430,N,09515.042465,W,1,09,0.7,282.1,M,-32.0,M,,*5E
 $GPRMC,203412.00,A,3857.318430,N,09515.037230,W,12.8,89.2,301123,2.4,E,A,V*5C
OK
UserDevice> AT+MMNEBCELL
+MMNEBCELL:
 "neighbourcell intra","LTE",2300,284,-9,-77,-50,0,-,-,-,-,-
 "neighbourcell intra","LTE",2300,389,-20,-90,-60,0,-,-,-,-,-
 "neighbourcell intra","LTE",2300,283,-20,-89,-60,0,-,-,-,-,-
OK
UserDevice> AT+MGPSNMEA
+MGPSNMEA:
+MGPSNMEA:
 $GPGGA,203417.00,3857.317918,N,09515.021561,W,1,09,0.7,279.7,M,-32.0,M,,*51
 $GPRMC,203417.00,A,3857.317918,N,09515.021561,W,8.1,90.3,301123,2.4,E,A,V*6C
OK
UserDevice> AT+MMNEBCELL
+MMNEBCELL:
 "neighbourcell intra","LTE",2300,284,-6,-70,-42,0,-,-,-,-,-
OK
UserDevice> AT+MGPSNMEA
+MGPSNMEA:
 $GPGGA,203421.00,3857.316667,N,09515.014349,W,1,09,0.7,276.3,M,-32.0,M,,*53
 $GPRMC,203421.00,A,3857.316667,N,09515.014349,W,2.7,99.3,301123,2.4,E,A,V*60
OK
UserDevice> AT+MMNEBCELL
+MMNEBCELL:
 "neighbourcell intra","LTE",2300,284,-7,-71,-41,0,-,-,-,-,-
OK
UserDevice> AT+MGPSNMEA
+MGPSNMEA:
 $GPGGA,203425.00,3857.316955,N,09515.010205,W,1,09,0.7,276.2,M,-32.0,M,,*55
 $GPRMC,203425.00,A,3857.316955,N,09515.010205,W,0.0,99.8,301123,2.4,E,A,V*69
OK
UserDevice> AT+MMNEBCELL
+MMNEBCELL:
 "neighbourcell intra","LTE",2300,284,-7,-70,-44,0,-,-,-,-,-
OK
UserDevice> AT+MGPSNMEA
+MGPSNMEA:
 $GPGGA,203429.00,3857.317492,N,09515.009696,W,1,09,0.7,276.9,M,-32.0,M,,*53
 $GPRMC,203428.00,A,3857.317492,N,09515.009698,W,0.0,99.8,301123,2.4,E,A,V*6B
OK
UserDevice> AT+MMNEBCELL
+MMNEBCELL:
 "neighbourcell intra","LTE",2300,284,-7,-69,-43,0,-,-,-,-,-
 "neighbourcell intra","LTE",2300,474,-20,-85,-53,0,-,-,-,-,-
OK
UserDevice> AT+MGPSNMEA
+MGPSNMEA:
 $GPGGA,203433.00,3857.317933,N,09515.008799,W,1,09,0.7,277.2,M,-32.0,M,,*5B
 $GPRMC,203433.00,A,3857.317933,N,09515.008799,W,0.0,99.8,301123,2.4,E,A,V*66
OK
UserDevice> AT+MMNEBCELL
+MMNEBCELL:
 "neighbourcell intra","LTE",2300,284,-6,-70,-44,0,-,-,-,-,-
OK
UserDevice> AT+MGPSNMEA
GPSNMEA
+MGPSNMEA:
 $GPGGA,203437.00,3857.318147,N,09515.008524,W,1,08,0.8,277.8,M,-32.0,M,,*5B
 $GPRMC,203437.00,A,3857.318147,N,09515.008524,W,0.0,99.8,301123,2.4,E,A,V*62
OK
UserDevice> AT+MMNEBCELL
+MMNEBCELL:
 "neighbourcell intra","LTE",2300,284,-7,-70,-42,0,-,-,-,-,-
 "neighbourcell intra","LTE",2300,474,-19,-79,-52,0,-,-,-,-,-
OK
UserDevice> AT+MGPSNMEA
+MGPSNMEA:
 $GPGGA,203441.00,3857.318153,N,09515.008499,W,1,08,0.8,277.9,M,-32.0,M,,*59
 $GPRMC,203441.00,A,3857.318153,N,09515.008499,W,0.0,99.8,301123,2.4,E,A,V*61
OK
AT+MGPSNMEA
+MGPSNMEA:
 $GPGGA,203442.00,3857.318150,N,09515.008486,W,1,08,0.8,277.9,M,-32.0,M,,*57
 $GPRMC,203442.00,A,3857.318150,N,09515.008486,W,0.0,99.8,301123,2.4,E,A,V*6F
OK
UserDevice> AT+MMNEBCELL
+MMNEBCELL:
 "neighbourcell intra","LTE",2300,284,-6,-72,-44,0,-,-,-,-,-
OK
UserDevice> AT+MGPSNMEA
+MGPSNMEA:
 $GPGGA,203446.00,3857.317907,N,09515.006712,W,1,09,0.7,279.5,M,-32.0,M,,*5A
 $GPRMC,203446.00,A,3857.317907,N,09515.006712,W,2.7,102.0,301123,2.4,E,A,V*50
OK
UserDevice> AT+MMNEBCELL
+MMNEBCELL:
 "neighbourcell intra","LTE",2300,284,-7,-65,-36,0,-,-,-,-,-
OK
UserDevice> AT+MGPSNMEA
+MGPSNMEA:
 $GPGGA,203450.00,3857.318564,N,09514.999424,W,1,09,0.7,276.1,M,-32.0,M,,*58
 $GPRMC,203450.00,A,3857.318564,N,09514.999424,W,5.1,70.6,301123,2.4,E,A,V*6A
OK
UserDevice> AT+MMSVRCELL
+MMNEBCELL:
 "neighbourcell intra","LTE",2300,284,-6,-64,-38,0,-,-,-,-,-
OK
UserDevice> AT+MGPSNMEA
+MGPSNMEA:
 $GPGGA,203454.00,3857.320651,N,09514.986112,W,1,09,0.7,279.0,M,-32.0,M,,*52
 $GPRMC,203454.00,A,3857.320651,N,09514.986112,W,9.6,86.6,301123,2.4,E,A,V*6C
OK
UserDevice> AT+MMNEBCELL
+MMNEBCELL:
 "neighbourcell intra","LTE",2300,284,-6,-67,-41,0,-,-,-,-,-
OK
UserDevice> AT+MGPSNMEA
+MGPSNMEA:
 $GPGGA,203458.00,3857.319264,N,09514.970996,W,1,09,0.7,279.9,M,-32.0,M,,*52
 $GPRMC,203458.00,A,3857.319264,N,09514.970996,W,11.4,90.2,301123,2.4,E,A,V*5D
OK
UserDevice> AT+MMNEBCELL
+MMNEBCELL:
 "neighbourcell intra","LTE",2300,284,-6,-76,-52,0,-,-,-,-,-
 "neighbourcell intra","LTE",2300,387,-20,-96,-59,0,-,-,-,-,-
 "neighbourcell intra","LTE",2300,388,-20,-93,-59,0,-,-,-,-,-
OK
UserDevice> AT+MGPSNMEA
+MGPSNMEA:
 $GPGGA,203502.00,3857.319151,N,09514.952181,W,1,09,0.7,279.9,M,-32.0,M,,*57
 $GPRMC,203502.00,A,3857.319151,N,09514.952181,W,13.0,87.3,301123,2.4,E,A,V*59
OK
UserDevice> AT+MMNEBCELL
+MMNEBCELL:
 "neighbourcell intra","LTE",2300,284,-9,-83,-54,0,-,-,-,-,-
 "neighbourcell intra","LTE",2300,388,-12,-87,-65,0,-,-,-,-,-
OK
UserDevice> AT+MGPSNMEA
+MGPSNMEA:
 $GPGGA,203506.00,3857.320579,N,09514.931921,W,1,09,0.7,278.9,M,-32.0,M,,*51
 $GPRMC,203506.00,A,3857.320579,N,09514.931921,W,14.0,88.8,301123,2.4,E,A,V*5D
OK
UserDevice> AT+MMNEBCELL
+MMNEBCELL:
 "neighbourcell intra","LTE",2300,284,-16,-86,-62,0,-,-,-,-,-
 "neighbourcell intra","LTE",2300,388,-7,-80,-51,0,-,-,-,-,-
 "neighbourcell intra","LTE",2300,389,-19,-90,-61,0,-,-,-,-,-
 "neighbourcell intra","LTE",2300,277,-18,-90,-61,0,-,-,-,-,-
 "neighbourcell intra","LTE",2300,331,-15,-90,-61,0,-,-,-,-,-
OK
UserDevice> AT+MGPSNMEA
+MGPSNMEA:
 $GPGGA,203510.00,3857.320545,N,09514.909997,W,1,09,0.7,278.7,M,-32.0,M,,*51
 $GPRMC,203510.00,A,3857.320545,N,09514.909997,W,14.5,91.6,301123,2.4,E,A,V*50
OK
UserDevice> AT+MMNEBCELL
+MMNEBCELL:
 "neighbourcell intra","LTE",2300,388,-7,-77,-45,0,-,-,-,-,-
OK
UserDevice> AT+MGPSNMEA
+MGPSNMEA:
 $GPGGA,203514.00,3857.319225,N,09514.888418,W,1,09,0.7,278.5,M,-32.0,M,,*5E
 $GPRMC,203514.00,A,3857.319225,N,09514.888418,W,15.2,88.5,301123,2.4,E,A,V*50
OK
UserDevice> AT+MMNEBCELL
+MMNEBCELL:
 "neighbourcell intra","LTE",2300,388,-8,-78,-46,0,-,-,-,-,-
 "neighbourcell intra","LTE",2300,277,-18,-88,-56,0,-,-,-,-,-
OK
UserDevice> AT+MGPSNMEA
+MGPSNMEA:
 $GPGGA,203518.00,3857.318856,N,09514.867103,W,1,09,0.7,279.3,M,-32.0,M,,*54
 $GPRMC,203518.00,A,3857.318856,N,09514.867103,W,13.1,87.9,301123,2.4,E,A,V*5B
OK
UserDevice> AT+MMNEBCELL
+MMNEBCELL:
 "neighbourcell intra","LTE",2300,388,-9,-78,-47,0,-,-,-,-,-
 "neighbourcell intra","LTE",2300,277,-20,-90,-58,0,-,-,-,-,-
 "neighbourcell intra","LTE",2300,387,-20,-91,-58,0,-,-,-,-,-
OK
UserDevice> AT+MGPSNMEA
+MGPSNMEA:
 $GPGGA,203522.00,3857.317623,N,09514.845827,W,1,09,0.7,280.9,M,-32.0,M,,*5D
 $GPRMC,203522.00,A,3857.317623,N,09514.845827,W,13.8,90.9,301123,2.4,E,A,V*51
OK
UserDevice> AT+MMNEBCELL
+MMNEBCELL:
 "neighbourcell intra","LTE",2300,388,-10,-79,-45,0,-,-,-,-,-
 "neighbourcell intra","LTE",2300,277,-20,-87,-61,0,-,-,-,-,-
OK
UserDevice> AT+MGPSNMEA
+MGPSNMEA:
 $GPGGA,203526.00,3857.316913,N,09514.826924,W,1,09,0.7,280.9,M,-32.0,M,,*53
 $GPRMC,203526.00,A,3857.316913,N,09514.826924,W,13.3,92.3,301123,2.4,E,A,V*5C
OK
UserDevice> AT+MMNEBCELL
+MMNEBCELL:
 "neighbourcell intra","LTE",2300,388,-9,-85,-56,0,-,-,-,-,-
 "neighbourcell intra","LTE",2300,277,-15,-89,-66,0,-,-,-,-,-
 "neighbourcell intra","LTE",2300,384,-20,-94,-66,0,-,-,-,-,-
OK
UserDevice> AT+MGPSNMEA
+MGPSNMEA:
 $GPGGA,203530.00,3857.317331,N,09514.807678,W,1,09,0.7,279.5,M,-32.0,M,,*50
 $GPRMC,203530.00,A,3857.317331,N,09514.807678,W,14.3,91.2,301123,2.4,E,A,V*50
OK
UserDevice> AT+MMNEBCELL
No Neighbour Cell Information Received!
OK
UserDevice> AT+MGPSNMEA
+MGPSNMEA:
 $GPGGA,203534.00,3857.317531,N,09514.786848,W,1,09,0.7,277.5,M,-32.0,M,,*57
 $GPRMC,203534.00,A,3857.317531,N,09514.786848,W,16.9,89.9,301123,2.4,E,A,V*53
OK
UserDevice> +MMNEBCELL:
 "neighbourcell intra","LTE",2300,387,-8,-87,-59,0,-,-,-,-,-
 "neighbourcell intra","LTE",2300,388,-19,-98,-70,0,-,-,-,-,-
 "neighbourcell intra","LTE",2300,277,-20,-100,-70,0,-,-,-,-,-
 "neighbourcell intra","LTE",2300,113,-20,-105,-70,0,-,-,-,-,-
OK
UserDevice> AT+MGPSNMEA
AT+MGPSNMEA
+MGPSNMEA:
 $GPGGA,203539.00,3857.316719,N,09514.756459,W,1,09,0.7,279.9,M,-32.0,M,,*50
 $GPRMC,203539.00,A,3857.316719,N,09514.756459,W,17.7,90.1,301123,2.4,E,A,V*59
OK
UserDevice> AT+MMNEBCELL
+MMNEBCELL:
 "neighbourcell intra","LTE",2300,277,-19,-101,-60,0,-,-,-,-,-
 "neighbourcell intra","LTE",2300,387,-11,-91,-71,0,-,-,-,-,-
 "neighbourcell intra","LTE",2300,388,-16,-99,-71,0,-,-,-,-,-
OK
UserDevice> AT+MGPSNMEA
+MGPSNMEA:
 $GPGGA,203543.00,3857.316617,N,09514.730714,W,1,09,0.7,282.6,M,-32.0,M,,*53
 $GPRMC,203543.00,A,3857.316617,N,09514.730714,W,18.4,90.2,301123,2.4,E,A,V*5E
OK
UserDevice> AT+MMNEBCELL
+MMNEBCELL:
 "neighbourcell intra","LTE",2300,277,-15,-96,-74,0,-,-,-,-,-
 "neighbourcell intra","LTE",2300,387,-11,-94,-62,0,-,-,-,-,-
 "neighbourcell intra","LTE",2300,260,-20,-110,-74,0,-,-,-,-,-
OK
UserDevice> AT+MGPSNMEA
+MGPSNMEA:
 $GPGGA,203547.00,3857.316766,N,09514.704278,W,1,09,0.7,284.5,M,-32.0,M,,*5D
 $GPRMC,203547.00,A,3857.316766,N,09514.704278,W,18.6,91.5,301123,2.4,E,A,V*51
OK
UserDevice> AT+MMSVRCELL
+MMNEBCELL:
 "neighbourcell intra","LTE",2300,277,-17,-94,-66,0,-,-,-,-,-
 "neighbourcell intra","LTE",2300,387,-16,-95,-51,0,-,-,-,-,-
 "neighbourcell intra","LTE",2300,388,-17,-96,-66,0,-,-,-,-,-
 "neighbourcell intra","LTE",2300,384,-14,-91,-66,0,-,-,-,-,-
OK
UserDevice> AT+MGPSNMEA
+MGPSNMEA:
 $GPGGA,203552.00,3857.316446,N,09514.677432,W,1,09,0.7,288.6,M,-32.0,M,,*5A
 $GPRMC,203552.00,A,3857.316446,N,09514.677432,W,10.5,93.3,301123,2.4,E,A,V*56
OK
UserDevice> AT+MMNEBCELL
+MMNEBCELL:
 "neighbourcell intra","LTE",2300,277,-14,-86,-50,0,-,-,-,-,-
 "neighbourcell intra","LTE",2300,384,-17,-89,-65,0,-,-,-,-,-
 "neighbourcell intra","LTE",2300,388,-20,-94,-65,0,-,-,-,-,-
OK
UserDevice> AT+MGPSNMEA
+MGPSNMEA:
 $GPGGA,203556.00,3857.316721,N,09514.670451,W,1,09,0.7,292.0,M,-32.0,M,,*53
 $GPRMC,203556.00,A,3857.316721,N,09514.670451,W,0.0,89.2,301123,2.4,E,A,V*6C
OK
UserDevice> AT+MMNEBCELL
+MMNEBCELL:
 "neighbourcell intra","LTE",2300,277,-15,-81,-45,0,-,-,-,-,-
 "neighbourcell intra","LTE",2300,384,-17,-84,-58,0,-,-,-,-,-
 "neighbourcell intra","LTE",2300,388,-20,-92,-56,0,-,-,-,-,-
OK
UserDevice> AT+MGPSNMEA
+MGPSNMEA:
 $GPGGA,203600.00,3857.316318,N,09514.669389,W,1,09,0.7,292.1,M,-32.0,M,,*56
 $GPRMC,203600.00,A,3857.316318,N,09514.669389,W,4.2,86.1,301123,2.4,E,A,V*62
