
UserDevice login: admin
Password: 
Connected to 127.0.0.1

Entering character mode
Escape character is '^]'.

Command Line Interface
UserDevice> AT+MGPSNMEA
+MGPSNMEA:
 $GPGGA,214038.00,3857.132459,N,09515.837676,W,1,05,2.1,319.2,M,-32.0,M,,*53
 $GPRMC,214038.00,A,3857.132459,N,09515.837676,W,0.0,42.3,290125,2.5,E,A,V*6C
OK
UserDevice> AT+MMSVRCELL
+MMSRVCELL:
 "servingcell","NOCONN","LTE","FDD",311,480,34F0916,364,2300,4,5,5,D806,-108,-11,-77,10,-
OK
UserDevice> AT+MMNEBCELL
+MMNEBCELL:
 "neighbourcell intra","LTE",2300,280,-14,-110,-88,0,-,-,-,-,-
 "neighbourcell intra","LTE",2300,364,-11,-108,-77,0,-,-,-,-,-
 "neighbourcell intra","LTE",2300,110,-20,-119,-88,0,-,-,-,-,-
OK
UserDevice> AT+MGPSNMEA
+MGPSNMEA:
 $GPGGA,214039.00,3857.132459,N,09515.837676,W,1,05,2.1,319.2,M,-32.0,M,,*52
 $GPRMC,214039.00,A,3857.132459,N,09515.837676,W,0.0,42.3,290125,2.5,E,A,V*6D
OK
UserDevice> AT+MMSVRCELL
+MMSRVCELL:
 "servingcell","NOCONN","LTE","FDD",311,480,34F0916,364,2300,4,5,5,D806,-108,-11,-76,11,-
OK
UserDevice> AT+MMNEBCELL
+MMNEBCELL:
 "neighbourcell intra","LTE",2300,280,-14,-110,-88,0,-,-,-,-,-
 "neighbourcell intra","LTE",2300,364,-11,-108,-76,0,-,-,-,-,-
OK
UserDevice> AT+MGPSNMEA
+MGPSNMEA:
 $GPGGA,214040.00,3857.132458,N,09515.837676,W,1,06,1.7,319.2,M,-32.0,M,,*5B
 $GPRMC,214040.00,A,3857.132458,N,09515.837676,W,0.0,42.3,290125,2.5,E,A,V*62
OK
UserDevice> AT+MMSVRCELL
+MMSRVCELL:
 "servingcell","NOCONN","LTE","FDD",311,480,34F0916,364,2300,4,5,5,D806,-108,-11,-78,11,-
OK
UserDevice> AT+MMNEBCELL
+MMNEBCELL:
 "neighbourcell intra","LTE",2300,280,-15,-111,-88,0,-,-,-,-,-
 "neighbourcell intra","LTE",2300,364,-11,-108,-78,0,-,-,-,-,-
OK
UserDevice> AT+MGPSNMEA
+MGPSNMEA:
 $GPGGA,214041.00,3857.132458,N,09515.837676,W,1,06,1.7,319.2,M,-32.0,M,,*5A
 $GPRMC,214041.00,A,3857.132458,N,09515.837676,W,0.0,42.3,290125,2.5,E,A,V*63
OK
UserDevice> AT+MMSVRCELL
+MMSRVCELL:
 "servingcell","NOCONN","LTE","FDD",311,480,34F0916,364,2300,4,5,5,D806,-108,-11,-76,10,-
OK
UserDevice> AT+MMNEBCELL
+MMNEBCELL:
 "neighbourcell intra","LTE",2300,280,-14,-111,-88,0,-,-,-,-,-
 "neighbourcell intra","LTE",2300,364,-11,-108,-76,0,-,-,-,-,-
OK
UserDevice> AT+MGPSNMEA
+MGPSNMEA:
 $GPGGA,214042.00,3857.132458,N,09515.837675,W,1,06,1.7,319.2,M,-32.0,M,,*5A
 $GPRMC,214042.00,A,3857.132458,N,09515.837675,W,0.0,42.3,290125,2.5,E,A,V*63
OK
UserDevice> AT+MMSVRCELL
+MMSRVCELL:
 "servingcell","NOCONN","LTE","FDD",311,480,34F0916,364,2300,4,5,5,D806,-108,-11,-78,11,-
OK
UserDevice> AT+MMNEBCELL
+MMNEBCELL:
 "neighbourcell intra","LTE",2300,280,-14,-110,-88,0,-,-,-,-,-
 "neighbourcell intra","LTE",2300,364,-11,-108,-78,0,-,-,-,-,-
 "neighbourcell intra","LTE",2300,110,-20,-117,-89,0,-,-,-,-,-
OK
UserDevice> AT+MGPSNMEA
+MGPSNMEA:
 $GPGGA,214043.00,3857.132458,N,09515.837675,W,1,06,1.7,319.2,M,-32.0,M,,*5B
 $GPRMC,214043.00,A,3857.132458,N,09515.837675,W,0.0,42.3,290125,2.5,E,A,V*62
OK
UserDevice> AT+MMSVRCELL
+MMSRVCELL:
 "servingcell","NOCONN","LTE","FDD",311,480,34F0916,364,2300,4,5,5,D806,-108,-11,-77,10,-
OK
UserDevice> AT+MMNEBCELL
+MMNEBCELL:
 "neighbourcell intra","LTE",2300,280,-14,-110,-88,0,-,-,-,-,-
 "neighbourcell intra","LTE",2300,364,-11,-108,-76,0,-,-,-,-,-
 "neighbourcell intra","LTE",2300,110,-20,-118,-88,0,-,-,-,-,-
OK
UserDevice> AT+MGPSNMEA
+MGPSNMEA:
 $GPGGA,214044.00,3857.132458,N,09515.837675,W,1,06,1.7,319.2,M,-32.0,M,,*5C
 $GPRMC,214044.00,A,3857.132458,N,09515.837675,W,0.0,42.3,290125,2.5,E,A,V*65
OK
UserDevice> AT+MMSVRCELL
+MMSRVCELL:
 "servingcell","NOCONN","LTE","FDD",311,480,34F0916,364,2300,4,5,5,D806,-108,-11,-76,10,-
OK
UserDevice> AT+MMNEBCELL
+MMNEBCELL:
 "neighbourcell intra","LTE",2300,280,-14,-110,-87,0,-,-,-,-,-
 "neighbourcell intra","LTE",2300,364,-11,-108,-77,0,-,-,-,-,-
 "neighbourcell intra","LTE",2300,110,-20,-118,-87,0,-,-,-,-,-
OK
UserDevice> AT+MGPSNMEA
+MGPSNMEA:
 $GPGGA,214045.00,3857.132458,N,09515.837675,W,1,05,1.9,319.2,M,-32.0,M,,*50
 $GPRMC,214045.00,A,3857.132458,N,09515.837675,W,0.0,42.3,290125,2.5,E,A,V*64
OK
UserDevice> AT+MMSVRCELL
+MMSRVCELL:
 "servingcell","NOCONN","LTE","FDD",311,480,34F0916,364,2300,4,5,5,D806,-108,-11,-76,9,-
OK
UserDevice> AT+MMNEBCELL
+MMNEBCELL:
 "neighbourcell intra","LTE",2300,280,-15,-110,-88,0,-,-,-,-,-
 "neighbourcell intra","LTE",2300,364,-11,-108,-76,0,-,-,-,-,-
 "neighbourcell intra","LTE",2300,110,-20,-117,-88,0,-,-,-,-,-
OK
UserDevice> AT+MGPSNMEA
+MGPSNMEA:
 $GPGGA,214046.00,3857.132458,N,09515.837675,W,1,05,1.9,319.2,M,-32.0,M,,*53
 $GPRMC,214046.00,A,3857.132458,N,09515.837675,W,0.0,42.3,290125,2.5,E,A,V*67
OK
UserDevice> AT+MMSVRCELL
+MMSRVCELL:
 "servingcell","NOCONN","LTE","FDD",311,480,34F0916,364,2300,4,5,5,D806,-108,-11,-77,10,-
OK
UserDevice> AT+MMNEBCELL
+MMNEBCELL:
 "neighbourcell intra","LTE",2300,110,-20,-117,-89,0,-,-,-,-,-
 "neighbourcell intra","LTE",2300,364,-11,-108,-76,0,-,-,-,-,-
 "neighbourcell intra","LTE",2300,280,-14,-111,-88,0,-,-,-,-,-
OK
UserDevice> AT+MGPSNMEA
+MGPSNMEA:
 $GPGGA,214047.00,3857.132458,N,09515.837675,W,1,05,1.9,319.2,M,-32.0,M,,*52
 $GPRMC,214047.00,A,3857.132458,N,09515.837675,W,0.0,42.3,290125,2.5,E,A,V*66
OK
UserDevice> AT+MMSVRCELL
+MMSRVCELL:
 "servingcell","NOCONN","LTE","FDD",311,480,34F0916,364,2300,4,5,5,D806,-108,-11,-76,9,-
OK
UserDevice> AT+MMNEBCELL
+MMNEBCELL:
 "neighbourcell intra","LTE",2300,110,-20,-118,-88,0,-,-,-,-,-
 "neighbourcell intra","LTE",2300,364,-11,-108,-76,0,-,-,-,-,-
 "neighbourcell intra","LTE",2300,280,-15,-111,-88,0,-,-,-,-,-
OK
UserDevice> AT+MGPSNMEA
+MGPSNMEA:
 $GPGGA,214048.00,3857.132458,N,09515.837675,W,1,04,3.0,319.2,M,-32.0,M,,*57
 $GPRMC,214048.00,A,3857.132458,N,09515.837675,W,0.0,42.3,290125,2.5,E,A,V*69
OK
UserDevice> AT+MMSVRCELL
+MMSRVCELL:
 "servingcell","NOCONN","LTE","FDD",311,480,34F0916,364,2300,4,5,5,D806,-108,-11,-78,11,-
OK
UserDevice> AT+MMNEBCELL
+MMNEBCELL:
 "neighbourcell intra","LTE",2300,110,-20,-117,-89,0,-,-,-,-,-
 "neighbourcell intra","LTE",2300,364,-11,-108,-78,0,-,-,-,-,-
 "neighbourcell intra","LTE",2300,280,-14,-111,-89,0,-,-,-,-,-
OK
UserDevice> AT+MGPSNMEA
+MGPSNMEA:
 $GPGGA,214050.00,3857.132458,N,09515.837675,W,1,04,3.4,319.2,M,-32.0,M,,*5A
 $GPRMC,214050.00,A,3857.132458,N,09515.837675,W,0.0,42.3,290125,2.5,E,A,V*60
OK
UserDevice> AT+MMSVRCELL
+MMSRVCELL:
 "servingcell","NOCONN","LTE","FDD",311,480,34F0916,364,2300,4,5,5,D806,-108,-11,-77,10,-
OK
UserDevice> AT+MMNEBCELL
+MMNEBCELL:
 "neighbourcell intra","LTE",2300,110,-20,-117,-89,0,-,-,-,-,-
 "neighbourcell intra","LTE",2300,364,-11,-108,-77,0,-,-,-,-,-
 "neighbourcell intra","LTE",2300,280,-14,-111,-89,0,-,-,-,-,-
OK
UserDevice> AT+MGPSNMEA
+MGPSNMEA:
 $GPGGA,214051.00,3857.132459,N,09515.837675,W,1,04,3.4,319.2,M,-32.0,M,,*5A
 $GPRMC,214051.00,A,3857.132459,N,09515.837675,W,0.0,42.3,290125,2.5,E,A,V*60
OK
UserDevice> AT+MMSVRCELL
+MMSRVCELL:
 "servingcell","NOCONN","LTE","FDD",311,480,34F0916,364,2300,4,5,5,D806,-108,-11,-77,10,-
OK
UserDevice> AT+MMNEBCELL
+MMNEBCELL:
 "neighbourcell intra","LTE",2300,110,-20,-118,-89,0,-,-,-,-,-
 "neighbourcell intra","LTE",2300,364,-11,-108,-77,0,-,-,-,-,-
 "neighbourcell intra","LTE",2300,280,-14,-110,-89,0,-,-,-,-,-
OK
UserDevice> AT+MGPSNMEA
+MGPSNMEA:
 $GPGGA,214052.00,3857.132459,N,09515.837675,W,1,03,7.5,319.2,M,-32.0,M,,*5B
 $GPRMC,214052.00,A,3857.132459,N,09515.837675,W,0.0,42.3,290125,2.5,E,A,V*63
OK
UserDevice> AT+MMSVRCELL
+MMSRVCELL:
 "servingcell","NOCONN","LTE","FDD",311,480,34F0916,364,2300,4,5,5,D806,-108,-10,-78,11,-
OK
UserDevice> AT+MMNEBCELL
+MMNEBCELL:
 "neighbourcell intra","LTE",2300,110,-20,-118,-89,0,-,-,-,-,-
 "neighbourcell intra","LTE",2300,364,-10,-108,-76,0,-,-,-,-,-
 "neighbourcell intra","LTE",2300,280,-14,-110,-89,0,-,-,-,-,-
OK
UserDevice> AT+MGPSNMEA
+MGPSNMEA:
 $GPGGA,214053.00,3857.132459,N,09515.837675,W,1,03,7.5,319.2,M,-32.0,M,,*5A
 $GPRMC,214053.00,A,3857.132459,N,09515.837675,W,0.0,42.3,290125,2.5,E,A,V*62
OK
UserDevice> AT+MMSVRCELL
+MMSRVCELL:
 "servingcell","NOCONN","LTE","FDD",311,480,34F0916,364,2300,4,5,5,D806,-108,-11,-76,10,-
OK
UserDevice> AT+MMNEBCELL
+MMNEBCELL:
 "neighbourcell intra","LTE",2300,110,-20,-119,-88,0,-,-,-,-,-
 "neighbourcell intra","LTE",2300,364,-11,-108,-75,0,-,-,-,-,-
 "neighbourcell intra","LTE",2300,280,-14,-110,-88,0,-,-,-,-,-
OK
UserDevice> AT+MGPSNMEA
+MGPSNMEA:
 $GPGGA,214054.00,3857.132459,N,09515.837675,W,1,03,7.5,319.2,M,-32.0,M,,*5D
 $GPRMC,214054.00,A,3857.132459,N,09515.837675,W,0.0,42.3,290125,2.5,E,A,V*65
OK
UserDevice> AT+MMSVRCELL
+MMSRVCELL:
 "servingcell","NOCONN","LTE","FDD",311,480,34F0916,364,2300,4,5,5,D806,-108,-11,-76,9,-
OK
UserDevice> AT+MMNEBCELL
+MMNEBCELL:
 "neighbourcell intra","LTE",2300,110,-20,-119,-88,0,-,-,-,-,-
 "neighbourcell intra","LTE",2300,364,-11,-108,-78,0,-,-,-,-,-
 "neighbourcell intra","LTE",2300,280,-14,-111,-88,0,-,-,-,-,-
OK
UserDevice> AT+MGPSNMEA
+MGPSNMEA:
 $GPGGA,214055.00,3857.132459,N,09515.837675,W,1,03,7.5,319.2,M,-32.0,M,,*5C
 $GPRMC,214055.00,A,3857.132459,N,09515.837675,W,0.0,42.3,290125,2.5,E,A,V*64
OK
UserDevice> AT+MMSVRCELL
+MMSRVCELL:
 "servingcell","NOCONN","LTE","FDD",311,480,34F0916,364,2300,4,5,5,D806,-108,-11,-76,9,-
OK
UserDevice> AT+MMNEBCELL
+MMNEBCELL:
 "neighbourcell intra","LTE",2300,110,-20,-119,-88,0,-,-,-,-,-
 "neighbourcell intra","LTE",2300,364,-11,-108,-77,0,-,-,-,-,-
 "neighbourcell intra","LTE",2300,280,-16,-112,-88,0,-,-,-,-,-
OK
UserDevice> AT+MGPSNMEA
+MGPSNMEA:
 $GPGGA,214056.00,3857.132459,N,09515.837675,W,1,03,7.5,319.2,M,-32.0,M,,*5F
 $GPRMC,214056.00,A,3857.132459,N,09515.837675,W,0.0,42.3,290125,2.5,E,A,V*67
OK
UserDevice> AT+MMSVRCELL
+MMSRVCELL:
 "servingcell","NOCONN","LTE","FDD",311,480,34F0916,364,2300,4,5,5,D806,-109,-12,-78,10,-
OK
UserDevice> AT+MMNEBCELL
+MMNEBCELL:
 "neighbourcell intra","LTE",2300,110,-18,-115,-89,0,-,-,-,-,-
 "neighbourcell intra","LTE",2300,364,-12,-109,-77,0,-,-,-,-,-
OK
UserDevice> AT+MGPSNMEA
+MGPSNMEA:
 $GPGGA,214057.00,3857.132459,N,09515.837675,W,1,03,3.9,319.2,M,-32.0,M,,*56
 $GPRMC,214057.00,A,3857.132459,N,09515.837675,W,0.0,42.3,290125,2.5,E,A,V*66
OK
UserDevice> AT+MMSVRCELL
+MMSRVCELL:
 "servingcell","NOCONN","LTE","FDD",311,480,34F0916,364,2300,4,5,5,D806,-109,-11,-78,10,-
OK
UserDevice> AT+MMNEBCELL
+MMNEBCELL:
 "neighbourcell intra","LTE",2300,110,-17,-115,-90,0,-,-,-,-,-
 "neighbourcell intra","LTE",2300,364,-11,-109,-78,0,-,-,-,-,-
OK
UserDevice> AT+MGPSNMEA
+MGPSNMEA:
 $GPGGA,214058.00,3857.132458,N,09515.837675,W,1,04,2.0,319.2,M,-32.0,M,,*57
 $GPRMC,214058.00,A,3857.132458,N,09515.837675,W,0.0,42.3,290125,2.5,E,A,V*68
OK
UserDevice> AT+MMSVRCELL
+MMSRVCELL:
 "servingcell","NOCONN","LTE","FDD",311,480,34F0916,364,2300,4,5,5,D806,-109,-11,-76,9,-
OK
UserDevice> AT+MMNEBCELL
+MMNEBCELL:
 "neighbourcell intra","LTE",2300,110,-16,-114,-91,0,-,-,-,-,-
 "neighbourcell intra","LTE",2300,364,-11,-109,-78,0,-,-,-,-,-
OK
UserDevice> AT+MGPSNMEA
+MGPSNMEA:
 $GPGGA,214059.00,3857.132458,N,09515.837675,W,1,05,1.9,319.2,M,-32.0,M,,*5D
 $GPRMC,214059.00,A,3857.132458,N,09515.837675,W,0.0,42.3,290125,2.5,E,A,V*69
OK
UserDevice> AT+MMSVRCELL
+MMSRVCELL:
 "servingcell","NOCONN","LTE","FDD",311,480,34F0916,364,2300,4,5,5,D806,-109,-11,-78,11,-
OK
UserDevice> AT+MMNEBCELL
+MMNEBCELL:
 "neighbourcell intra","LTE",2300,110,-16,-114,-90,0,-,-,-,-,-
 "neighbourcell intra","LTE",2300,364,-11,-109,-76,0,-,-,-,-,-
OK
UserDevice> AT+MGPSNMEA
+MGPSNMEA:
 $GPGGA,214100.00,3857.132459,N,09515.837675,W,1,05,1.9,319.2,M,-32.0,M,,*51
 $GPRMC,214100.00,A,3857.132459,N,09515.837675,W,0.0,42.3,290125,2.5,E,A,V*65
OK
UserDevice> AT+MMSVRCELL
+MMSRVCELL:
 "servingcell","NOCONN","LTE","FDD",311,480,34F0916,364,2300,4,5,5,D806,-109,-11,-78,11,-
OK
UserDevice> AT+MMNEBCELL
+MMNEBCELL:
 "neighbourcell intra","LTE",2300,110,-18,-116,-89,0,-,-,-,-,-
 "neighbourcell intra","LTE",2300,364,-11,-109,-78,0,-,-,-,-,-
 "neighbourcell intra","LTE",2300,280,-16,-114,-89,0,-,-,-,-,-
OK
UserDevice> AT+MGPSNMEA
+MGPSNMEA:
 $GPGGA,214101.00,3857.132459,N,09515.837675,W,1,05,1.9,319.2,M,-32.0,M,,*50
 $GPRMC,214101.00,A,3857.132459,N,09515.837675,W,0.0,42.3,290125,2.5,E,A,V*64
OK
UserDevice> AT+MMSVRCELL
+MMSRVCELL:
 "servingcell","NOCONN","LTE","FDD",311,480,34F0916,364,2300,4,5,5,D806,-109,-11,-76,10,-
OK
UserDevice> AT+MMNEBCELL
+MMNEBCELL:
 "neighbourcell intra","LTE",2300,110,-19,-117,-90,0,-,-,-,-,-
 "neighbourcell intra","LTE",2300,364,-11,-109,-77,0,-,-,-,-,-
 "neighbourcell intra","LTE",2300,280,-15,-113,-89,0,-,-,-,-,-
OK
UserDevice> AT+MGPSNMEA
+MGPSNMEA:
 $GPGGA,214102.00,3857.132459,N,09515.837675,W,1,05,1.9,319.2,M,-32.0,M,,*53
 $GPRMC,214102.00,A,3857.132459,N,09515.837675,W,0.0,42.3,290125,2.5,E,A,V*67
OK
UserDevice> AT+MMSVRCELL
+MMSRVCELL:
 "servingcell","NOCONN","LTE","FDD",311,480,34F0916,364,2300,4,5,5,D806,-109,-11,-77,10,-
OK
UserDevice> AT+MMNEBCELL
+MMNEBCELL:
 "neighbourcell intra","LTE",2300,110,-19,-116,-88,0,-,-,-,-,-
 "neighbourcell intra","LTE",2300,364,-11,-109,-78,0,-,-,-,-,-
 "neighbourcell intra","LTE",2300,280,-15,-112,-88,0,-,-,-,-,-
OK
UserDevice> AT+MGPSNMEA
+MGPSNMEA:
 $GPGGA,214103.00,3857.132458,N,09515.837675,W,1,05,1.9,319.2,M,-32.0,M,,*53
 $GPRMC,214103.00,A,3857.132458,N,09515.837675,W,0.0,42.3,290125,2.5,E,A,V*67
OK
UserDevice> AT+MMSVRCELL
+MMSRVCELL:
 "servingcell","NOCONN","LTE","FDD",311,480,34F0916,364,2300,4,5,5,D806,-109,-12,-78,11,-
OK
UserDevice> AT+MMNEBCELL
+MMNEBCELL:
 "neighbourcell intra","LTE",2300,110,-20,-117,-90,0,-,-,-,-,-
 "neighbourcell intra","LTE",2300,364,-12,-109,-78,0,-,-,-,-,-
OK
UserDevice> AT+MGPSNMEA
+MGPSNMEA:
 $GPGGA,214104.00,3857.132458,N,09515.837675,W,1,05,1.9,319.2,M,-32.0,M,,*54
 $GPRMC,214104.00,A,3857.132458,N,09515.837675,W,0.0,42.3,290125,2.5,E,A,V*60
OK
UserDevice> AT+MMSVRCELL
+MMSRVCELL:
 "servingcell","NOCONN","LTE","FDD",311,480,34F0916,364,2300,4,5,5,D806,-109,-11,-78,11,-
OK
UserDevice> AT+MMNEBCELL
+MMNEBCELL:
 "neighbourcell intra","LTE",2300,110,-19,-117,-89,0,-,-,-,-,-
 "neighbourcell intra","LTE",2300,364,-11,-109,-77,0,-,-,-,-,-
OK
UserDevice> AT+MGPSNMEA
+MGPSNMEA:
 $GPGGA,214105.00,3857.132458,N,09515.837675,W,1,05,1.9,319.2,M,-32.0,M,,*55
 $GPRMC,214105.00,A,3857.132458,N,09515.837675,W,0.0,42.3,290125,2.5,E,A,V*61
OK
UserDevice> AT+MMSVRCELL
+MMSRVCELL:
 "servingcell","NOCONN","LTE","FDD",311,480,34F0916,364,2300,4,5,5,D806,-109,-11,-76,10,-
OK
UserDevice> AT+MMNEBCELL
+MMNEBCELL:
 "neighbourcell intra","LTE",2300,110,-19,-117,-88,0,-,-,-,-,-
 "neighbourcell intra","LTE",2300,364,-11,-109,-78,0,-,-,-,-,-
 "neighbourcell intra","LTE",2300,280,-17,-113,-88,0,-,-,-,-,-
OK
UserDevice> AT+MGPSNMEA
+MGPSNMEA:
 $GPGGA,214106.00,3857.132458,N,09515.837675,W,1,05,1.9,319.2,M,-32.0,M,,*56
 $GPRMC,214106.00,A,3857.132458,N,09515.837675,W,0.0,42.3,290125,2.5,E,A,V*62
OK
UserDevice> AT+MMSVRCELL
+MMSRVCELL:
 "servingcell","NOCONN","LTE","FDD",311,480,34F0916,364,2300,4,5,5,D806,-109,-11,-76,9,-
OK
UserDevice> AT+MMNEBCELL
+MMNEBCELL:
 "neighbourcell intra","LTE",2300,110,-18,-116,-90,0,-,-,-,-,-
 "neighbourcell intra","LTE",2300,364,-11,-109,-78,0,-,-,-,-,-
OK
UserDevice> AT+MGPSNMEA
+MGPSNMEA:
 $GPGGA,214107.00,3857.132458,N,09515.837675,W,1,04,2.0,319.2,M,-32.0,M,,*5C
 $GPRMC,214107.00,A,3857.132458,N,09515.837675,W,0.0,42.3,290125,2.5,E,A,V*63
OK
UserDevice> AT+MMSVRCELL
+MMSRVCELL:
 "servingcell","NOCONN","LTE","FDD",311,480,34F0916,364,2300,4,5,5,D806,-109,-11,-78,10,-
OK
UserDevice> AT+MMNEBCELL
+MMNEBCELL:
 "neighbourcell intra","LTE",2300,110,-18,-116,-91,0,-,-,-,-,-
 "neighbourcell intra","LTE",2300,364,-11,-109,-78,0,-,-,-,-,-
OK
UserDevice> AT+MGPSNMEA
+MGPSNMEA:
 $GPGGA,214108.00,3857.132458,N,09515.837675,W,1,04,2.0,319.2,M,-32.0,M,,*53
 $GPRMC,214108.00,A,3857.132458,N,09515.837675,W,0.0,42.3,290125,2.5,E,A,V*6C
OK
UserDevice> AT+MMSVRCELL
+MMSRVCELL:
 "servingcell","NOCONN","LTE","FDD",311,480,34F0916,364,2300,4,5,5,D806,-109,-11,-78,11,-
OK
UserDevice> AT+MMNEBCELL
+MMNEBCELL:
 "neighbourcell intra","LTE",2300,110,-18,-116,-89,0,-,-,-,-,-
 "neighbourcell intra","LTE",2300,364,-11,-109,-78,0,-,-,-,-,-
OK
UserDevice> AT+MGPSNMEA
+MGPSNMEA:
 $GPGGA,214109.00,3857.132458,N,09515.837675,W,1,04,2.0,319.2,M,-32.0,M,,*52
 $GPRMC,214109.00,A,3857.132458,N,09515.837675,W,0.0,42.3,290125,2.5,E,A,V*6D
OK
UserDevice> AT+MMSVRCELL
+MMSRVCELL:
 "servingcell","NOCONN","LTE","FDD",311,480,34F0916,364,2300,4,5,5,D806,-109,-11,-78,11,-
OK
UserDevice> AT+MMNEBCELL
+MMNEBCELL:
 "neighbourcell intra","LTE",2300,110,-18,-116,-89,0,-,-,-,-,-
 "neighbourcell intra","LTE",2300,364,-11,-109,-77,0,-,-,-,-,-
OK
UserDevice> AT+MGPSNMEA
+MGPSNMEA:
 $GPGGA,214110.00,3857.132458,N,09515.837675,W,1,04,2.0,319.2,M,-32.0,M,,*5A
 $GPRMC,214110.00,A,3857.132458,N,09515.837675,W,0.0,42.3,290125,2.5,E,A,V*65
OK
UserDevice> AT+MMSVRCELL
+MMSRVCELL:
 "servingcell","NOCONN","LTE","FDD",311,480,34F0916,364,2300,4,5,5,D806,-109,-11,-78,10,-
OK
UserDevice> AT+MMNEBCELL
+MMNEBCELL:
 "neighbourcell intra","LTE",2300,110,-19,-116,-89,0,-,-,-,-,-
 "neighbourcell intra","LTE",2300,364,-11,-109,-76,0,-,-,-,-,-
OK
UserDevice> AT+MGPSNMEA
+MGPSNMEA:
 $GPGGA,214111.00,3857.132458,N,09515.837674,W,1,04,2.0,319.2,M,-32.0,M,,*5A
 $GPRMC,214111.00,A,3857.132458,N,09515.837674,W,0.0,42.3,290125,2.5,E,A,V*65
OK
UserDevice> AT+MMSVRCELL
+MMSRVCELL:
 "servingcell","NOCONN","LTE","FDD",311,480,34F0916,364,2300,4,5,5,D806,-109,-12,-75,10,-
OK
UserDevice> AT+MMNEBCELL
+MMNEBCELL:
 "neighbourcell intra","LTE",2300,110,-20,-118,-89,0,-,-,-,-,-
 "neighbourcell intra","LTE",2300,364,-11,-109,-77,0,-,-,-,-,-
OK
UserDevice> AT+MGPSNMEA
+MGPSNMEA:
 $GPGGA,214113.00,3857.132458,N,09515.837674,W,1,04,2.0,319.2,M,-32.0,M,,*58
 $GPRMC,214113.00,A,3857.132458,N,09515.837674,W,0.0,42.3,290125,2.5,E,A,V*67
OK
UserDevice> AT+MMSVRCELL
+MMSRVCELL:
 "servingcell","NOCONN","LTE","FDD",311,480,34F0916,364,2300,4,5,5,D806,-109,-12,-76,10,-
OK
UserDevice> AT+MMNEBCELL
+MMNEBCELL:
 "neighbourcell intra","LTE",2300,110,-20,-117,-89,0,-,-,-,-,-
 "neighbourcell intra","LTE",2300,364,-12,-109,-77,0,-,-,-,-,-
 "neighbourcell intra","LTE",2300,280,-16,-113,-89,0,-,-,-,-,-
OK
UserDevice> AT+MGPSNMEA
+MGPSNMEA:
 $GPGGA,214114.00,3857.132458,N,09515.837674,W,1,04,2.0,319.2,M,-32.0,M,,*5F
 $GPRMC,214114.00,A,3857.132458,N,09515.837674,W,0.0,42.3,290125,2.5,E,A,V*60
OK
UserDevice> AT+MMSVRCELL
+MMSRVCELL:
 "servingcell","NOCONN","LTE","FDD",311,480,34F0916,364,2300,4,5,5,D806,-109,-11,-77,10,-
OK
UserDevice> AT+MMNEBCELL
+MMNEBCELL:
 "neighbourcell intra","LTE",2300,110,-18,-116,-90,0,-,-,-,-,-
 "neighbourcell intra","LTE",2300,364,-11,-109,-76,0,-,-,-,-,-
 "neighbourcell intra","LTE",2300,280,-15,-113,-90,0,-,-,-,-,-
OK
UserDevice> AT+MGPSNMEA
+MGPSNMEA:
 $GPGGA,214115.00,3857.132458,N,09515.837674,W,1,04,2.0,319.2,M,-32.0,M,,*5E
 $GPRMC,214115.00,A,3857.132458,N,09515.837674,W,0.0,42.3,290125,2.5,E,A,V*61
OK
UserDevice> AT+MMSVRCELL
+MMSRVCELL:
 "servingcell","NOCONN","LTE","FDD",311,480,34F0916,364,2300,4,5,5,D806,-109,-11,-76,10,-
OK
UserDevice> AT+MMNEBCELL
+MMNEBCELL:
 "neighbourcell intra","LTE",2300,280,-14,-112,-91,0,-,-,-,-,-
 "neighbourcell intra","LTE",2300,364,-11,-109,-78,0,-,-,-,-,-
OK
UserDevice> AT+MGPSNMEA
+MGPSNMEA:
 $GPGGA,214116.00,3857.132458,N,09515.837673,W,1,04,2.0,319.2,M,-32.0,M,,*5A
 $GPRMC,214116.00,A,3857.132458,N,09515.837673,W,0.0,42.3,290125,2.5,E,A,V*65
OK
UserDevice> AT+MMSVRCELL
+MMSRVCELL:
 "servingcell","NOCONN","LTE","FDD",311,480,34F0916,364,2300,4,5,5,D806,-109,-11,-79,10,-
OK
UserDevice> AT+MMNEBCELL
+MMNEBCELL:
 "neighbourcell intra","LTE",2300,110,-18,-117,-90,0,-,-,-,-,-
 "neighbourcell intra","LTE",2300,364,-11,-109,-79,0,-,-,-,-,-
OK
UserDevice> AT+MGPSNMEA
+MGPSNMEA:
 $GPGGA,214117.00,3857.132458,N,09515.837673,W,1,04,2.0,319.2,M,-32.0,M,,*5B
 $GPRMC,214117.00,A,3857.132458,N,09515.837673,W,0.0,42.3,290125,2.5,E,A,V*64
OK
UserDevice> AT+MMSVRCELL
+MMSRVCELL:
 "servingcell","NOCONN","LTE","FDD",311,480,34F0916,364,2300,4,5,5,D806,-109,-11,-76,9,-
OK
UserDevice> AT+MMNEBCELL
+MMNEBCELL:
 "neighbourcell intra","LTE",2300,110,-17,-115,-88,0,-,-,-,-,-
 "neighbourcell intra","LTE",2300,364,-11,-109,-78,0,-,-,-,-,-
 "neighbourcell intra","LTE",2300,280,-15,-113,-88,0,-,-,-,-,-
OK
UserDevice> AT+MGPSNMEA
+MGPSNMEA:
 $GPGGA,214118.00,3857.132458,N,09515.837673,W,1,04,2.0,319.2,M,-32.0,M,,*54
 $GPRMC,214118.00,A,3857.132458,N,09515.837673,W,0.0,42.3,290125,2.5,E,A,V*6B
OK
UserDevice> AT+MMSVRCELL
+MMSRVCELL:
 "servingcell","NOCONN","LTE","FDD",311,480,34F0916,364,2300,4,5,5,D806,-109,-11,-75,10,-
OK
UserDevice> AT+MMNEBCELL
+MMNEBCELL:
 "neighbourcell intra","LTE",2300,280,-14,-112,-89,0,-,-,-,-,-
 "neighbourcell intra","LTE",2300,364,-11,-109,-77,0,-,-,-,-,-
OK
UserDevice> AT+MGPSNMEA
+MGPSNMEA:
 $GPGGA,214119.00,3857.132458,N,09515.837673,W,1,04,2.0,319.2,M,-32.0,M,,*55
 $GPRMC,214119.00,A,3857.132458,N,09515.837673,W,0.0,42.3,290125,2.5,E,A,V*6A
OK
UserDevice> AT+MMSVRCELL
+MMSRVCELL:
 "servingcell","NOCONN","LTE","FDD",311,480,34F0916,364,2300,4,5,5,D806,-108,-11,-77,10,-
OK
UserDevice> AT+MMNEBCELL
+MMNEBCELL:
 "neighbourcell intra","LTE",2300,280,-15,-112,-90,0,-,-,-,-,-
 "neighbourcell intra","LTE",2300,364,-11,-109,-77,0,-,-,-,-,-
 "neighbourcell intra","LTE",2300,332,-20,-119,-90,0,-,-,-,-,-
OK
UserDevice> AT+MGPSNMEA
+MGPSNMEA:
 $GPGGA,214120.00,3857.132458,N,09515.837672,W,1,04,2.0,319.2,M,-32.0,M,,*5E
 $GPRMC,214120.00,A,3857.132458,N,09515.837672,W,0.0,42.3,290125,2.5,E,A,V*61
OK
UserDevice> AT+MMSVRCELL
+MMSRVCELL:
 "servingcell","NOCONN","LTE","FDD",311,480,34F0916,364,2300,4,5,5,D806,-109,-12,-75,9,-
OK
UserDevice> AT+MMNEBCELL
+MMNEBCELL:
 "neighbourcell intra","LTE",2300,364,-12,-108,-76,0,-,-,-,-,-
OK
UserDevice> AT+MGPSNMEA
+MGPSNMEA:
 $GPGGA,214121.00,3857.132457,N,09515.837672,W,1,04,2.0,319.2,M,-32.0,M,,*50
 $GPRMC,214121.00,A,3857.132457,N,09515.837672,W,0.0,42.3,290125,2.5,E,A,V*6F
OK
UserDevice> AT+MMSVRCELL
+MMSRVCELL:
 "servingcell","NOCONN","LTE","FDD",311,480,34F0916,364,2300,4,5,5,D806,-109,-12,-76,9,-
OK
UserDevice> AT+MMNEBCELL
+MMNEBCELL:
 "neighbourcell intra","LTE",2300,364,-12,-108,-76,0,-,-,-,-,-
 "neighbourcell intra","LTE",2300,280,-15,-111,-88,0,-,-,-,-,-
 "neighbourcell intra","LTE",2300,332,-20,-117,-88,0,-,-,-,-,-
OK
UserDevice> AT+MGPSNMEA
+MGPSNMEA:
 $GPGGA,214122.00,3857.132457,N,09515.837672,W,1,05,1.9,319.2,M,-32.0,M,,*58
 $GPRMC,214122.00,A,3857.132457,N,09515.837672,W,0.0,42.3,290125,2.5,E,A,V*6C
OK
UserDevice> AT+MMSVRCELL
+MMSRVCELL:
 "servingcell","NOCONN","LTE","FDD",311,480,34F0916,364,2300,4,5,5,D806,-109,-12,-77,10,-
OK
UserDevice> AT+MMNEBCELL
+MMNEBCELL:
 "neighbourcell intra","LTE",2300,364,-12,-109,-77,0,-,-,-,-,-
 "neighbourcell intra","LTE",2300,280,-15,-111,-88,0,-,-,-,-,-
 "neighbourcell intra","LTE",2300,110,-18,-113,-88,0,-,-,-,-,-
OK
UserDevice> AT+MGPSNMEA
+MGPSNMEA:
 $GPGGA,214123.00,3857.132457,N,09515.837672,W,1,05,1.9,319.2,M,-32.0,M,,*59
 $GPRMC,214123.00,A,3857.132457,N,09515.837672,W,0.0,42.3,290125,2.5,E,A,V*6D
OK
UserDevice> AT+MMSVRCELL
+MMSRVCELL:
 "servingcell","NOCONN","LTE","FDD",311,480,34F0916,364,2300,4,5,5,D806,-109,-12,-77,10,-
OK
UserDevice> AT+MMNEBCELL
+MMNEBCELL:
 "neighbourcell intra","LTE",2300,364,-12,-109,-78,0,-,-,-,-,-
 "neighbourcell intra","LTE",2300,280,-16,-113,-89,0,-,-,-,-,-
 "neighbourcell intra","LTE",2300,110,-18,-115,-89,0,-,-,-,-,-
 "neighbourcell intra","LTE",2300,332,-18,-116,-89,0,-,-,-,-,-
OK
UserDevice> AT+MGPSNMEA
+MGPSNMEA:
 $GPGGA,214125.00,3857.132457,N,09515.837672,W,1,05,1.9,319.2,M,-32.0,M,,*5F
 $GPRMC,214125.00,A,3857.132457,N,09515.837672,W,0.0,42.3,290125,2.5,E,A,V*6B
OK
UserDevice> AT+MMSVRCELL
+MMSRVCELL:
 "servingcell","NOCONN","LTE","FDD",311,480,34F0916,364,2300,4,5,5,D806,-109,-12,-78,10,-
OK
UserDevice> AT+MMNEBCELL
+MMNEBCELL:
 "neighbourcell intra","LTE",2300,364,-12,-109,-78,0,-,-,-,-,-
 "neighbourcell intra","LTE",2300,280,-17,-114,-90,0,-,-,-,-,-
 "neighbourcell intra","LTE",2300,110,-18,-115,-90,0,-,-,-,-,-
OK
UserDevice> AT+MGPSNMEA
+MGPSNMEA:
 $GPGGA,214126.00,3857.132457,N,09515.837672,W,1,05,1.9,319.2,M,-32.0,M,,*5C
 $GPRMC,214126.00,A,3857.132457,N,09515.837672,W,0.0,42.3,290125,2.5,E,A,V*68
OK
UserDevice> AT+MMSVRCELL
+MMSRVCELL:
 "servingcell","NOCONN","LTE","FDD",311,480,34F0916,364,2300,4,5,5,D806,-110,-12,-77,8,-
OK
UserDevice> AT+MMNEBCELL
+MMNEBCELL:
 "neighbourcell intra","LTE",2300,364,-12,-110,-77,0,-,-,-,-,-
 "neighbourcell intra","LTE",2300,110,-20,-118,-88,0,-,-,-,-,-
 "neighbourcell intra","LTE",2300,332,-20,-121,-88,0,-,-,-,-,-
OK
UserDevice> AT+MGPSNMEA
+MGPSNMEA:
 $GPGGA,214127.00,3857.132457,N,09515.837672,W,1,05,1.9,319.2,M,-32.0,M,,*5D
 $GPRMC,214127.00,A,3857.132457,N,09515.837672,W,0.0,42.3,290125,2.5,E,A,V*69
OK
UserDevice> AT+MMSVRCELL
+MMSRVCELL:
 "servingcell","NOCONN","LTE","FDD",311,480,34F0916,364,2300,4,5,5,D806,-111,-12,-78,9,-
OK
UserDevice> AT+MMNEBCELL
+MMNEBCELL:
 "neighbourcell intra","LTE",2300,364,-13,-111,-76,0,-,-,-,-,-
 "neighbourcell intra","LTE",2300,110,-17,-115,-88,0,-,-,-,-,-
 "neighbourcell intra","LTE",2300,332,-19,-117,-88,0,-,-,-,-,-
OK
UserDevice> AT+MGPSNMEA
+MGPSNMEA:
 $GPGGA,214128.00,3857.132457,N,09515.837672,W,1,04,2.1,319.2,M,-32.0,M,,*58
 $GPRMC,214128.00,A,3857.132457,N,09515.837672,W,0.0,42.3,290125,2.5,E,A,V*66
OK
UserDevice> AT+MMSVRCELL
+MMSRVCELL:
 "servingcell","NOCONN","LTE","FDD",311,480,34F0916,364,2300,4,5,5,D806,-111,-12,-81,9,-
OK
UserDevice> AT+MMNEBCELL
+MMNEBCELL:
 "neighbourcell intra","LTE",2300,364,-12,-111,-78,0,-,-,-,-,-
 "neighbourcell intra","LTE",2300,110,-18,-117,-92,0,-,-,-,-,-
 "neighbourcell intra","LTE",2300,332,-17,-117,-92,0,-,-,-,-,-
OK
UserDevice> AT+MGPSNMEA
+MGPSNMEA:
 $GPGGA,214129.00,3857.132457,N,09515.837672,W,1,04,2.1,319.2,M,-32.0,M,,*59
 $GPRMC,214129.00,A,3857.132457,N,09515.837672,W,0.0,42.3,290125,2.5,E,A,V*67
OK
UserDevice> AT+MMSVRCELL
+MMSRVCELL:
 "servingcell","NOCONN","LTE","FDD",311,480,34F0916,364,2300,4,5,5,D806,-111,-13,-77,9,-
OK
UserDevice> AT+MMNEBCELL
+MMNEBCELL:
 "neighbourcell intra","LTE",2300,364,-12,-111,-79,0,-,-,-,-,-
 "neighbourcell intra","LTE",2300,110,-16,-114,-90,0,-,-,-,-,-
 "neighbourcell intra","LTE",2300,280,-15,-112,-90,0,-,-,-,-,-
OK
UserDevice> AT+MGPSNMEA
+MGPSNMEA:
 $GPGGA,214130.00,3857.132457,N,09515.837672,W,1,04,2.1,319.2,M,-32.0,M,,*51
 $GPRMC,214130.00,A,3857.132457,N,09515.837672,W,0.0,42.3,290125,2.5,E,A,V*6F
OK
UserDevice> AT+MMSVRCELL
+MMSRVCELL:
 "servingcell","NOCONN","LTE","FDD",311,480,34F0916,364,2300,4,5,5,D806,-111,-12,-80,11,-
OK
UserDevice> AT+MMNEBCELL
+MMNEBCELL:
 "neighbourcell intra","LTE",2300,364,-12,-111,-81,0,-,-,-,-,-
 "neighbourcell intra","LTE",2300,110,-15,-115,-93,0,-,-,-,-,-
OK
UserDevice> AT+MGPSNMEA
+MGPSNMEA:
 $GPGGA,214131.00,3857.132457,N,09515.837671,W,1,04,2.1,319.2,M,-32.0,M,,*53
 $GPRMC,214131.00,A,3857.132457,N,09515.837671,W,0.0,42.3,290125,2.5,E,A,V*6D
OK
UserDevice> AT+MMSVRCELL
+MMSRVCELL:
 "servingcell","NOCONN","LTE","FDD",311,480,34F0916,364,2300,4,5,5,D806,-110,-11,-76,12,-
OK
UserDevice> AT+MMNEBCELL
+MMNEBCELL:
 "neighbourcell intra","LTE",2300,364,-11,-110,-76,0,-,-,-,-,-
 "neighbourcell intra","LTE",2300,110,-16,-116,-90,0,-,-,-,-,-
 "neighbourcell intra","LTE",2300,280,-15,-113,-90,0,-,-,-,-,-
OK
UserDevice> AT+MGPSNMEA
+MGPSNMEA:
 $GPGGA,214132.00,3857.132457,N,09515.837671,W,1,04,2.1,319.2,M,-32.0,M,,*50
 $GPRMC,214132.00,A,3857.132457,N,09515.837671,W,0.0,42.3,290125,2.5,E,A,V*6E
OK
UserDevice> AT+MMSVRCELL
+MMSRVCELL:
 "servingcell","NOCONN","LTE","FDD",311,480,34F0916,364,2300,4,5,5,D806,-108,-11,-75,11,-
OK
UserDevice> AT+MMNEBCELL
+MMNEBCELL:
 "neighbourcell intra","LTE",2300,364,-11,-108,-76,0,-,-,-,-,-
 "neighbourcell intra","LTE",2300,280,-15,-113,-90,0,-,-,-,-,-
 "neighbourcell intra","LTE",2300,110,-17,-114,-90,0,-,-,-,-,-
OK
UserDevice> AT+MGPSNMEA
+MGPSNMEA:
 $GPGGA,214133.00,3857.132457,N,09515.837671,W,1,04,2.1,319.2,M,-32.0,M,,*51
 $GPRMC,214133.00,A,3857.132457,N,09515.837671,W,0.0,42.3,290125,2.5,E,A,V*6F
OK
UserDevice> AT+MMSVRCELL
+MMSRVCELL:
 "servingcell","NOCONN","LTE","FDD",311,480,34F0916,364,2300,4,5,5,D806,-109,-12,-75,11,-
OK
UserDevice> AT+MMNEBCELL
+MMNEBCELL:
 "neighbourcell intra","LTE",2300,364,-12,-109,-77,0,-,-,-,-,-
 "neighbourcell intra","LTE",2300,280,-15,-112,-89,0,-,-,-,-,-
 "neighbourcell intra","LTE",2300,110,-18,-115,-89,0,-,-,-,-,-
OK
UserDevice> AT+MGPSNMEA
+MGPSNMEA:
 $GPGGA,214134.00,3857.132458,N,09515.837671,W,1,05,1.9,319.2,M,-32.0,M,,*53
 $GPRMC,214134.00,A,3857.132458,N,09515.837671,W,0.0,42.3,290125,2.5,E,A,V*67
OK
UserDevice> AT+MMSVRCELL
+MMSRVCELL:
 "servingcell","NOCONN","LTE","FDD",311,480,34F0916,364,2300,4,5,5,D806,-109,-11,-76,9,-
OK
UserDevice> AT+MMNEBCELL
+MMNEBCELL:
 "neighbourcell intra","LTE",2300,364,-11,-110,-79,0,-,-,-,-,-
 "neighbourcell intra","LTE",2300,280,-14,-114,-92,0,-,-,-,-,-
 "neighbourcell intra","LTE",2300,110,-18,-117,-92,0,-,-,-,-,-
OK
UserDevice> AT+MGPSNMEA
+MGPSNMEA:
 $GPGGA,214136.00,3857.132458,N,09515.837671,W,1,05,1.9,319.2,M,-32.0,M,,*51
 $GPRMC,214136.00,A,3857.132458,N,09515.837671,W,0.0,42.3,290125,2.5,E,A,V*65
OK
UserDevice> AT+MMSVRCELL
+MMSRVCELL:
 "servingcell","NOCONN","LTE","FDD",311,480,34F0916,364,2300,4,5,5,D806,-111,-12,-79,8,-
OK
UserDevice> AT+MMNEBCELL
+MMNEBCELL:
 "neighbourcell intra","LTE",2300,364,-13,-112,-79,0,-,-,-,-,-
 "neighbourcell intra","LTE",2300,280,-14,-114,-91,0,-,-,-,-,-
 "neighbourcell intra","LTE",2300,110,-18,-117,-91,0,-,-,-,-,-
OK
UserDevice> AT+MGPSNMEA
+MGPSNMEA:
 $GPGGA,214137.00,3857.132458,N,09515.837671,W,1,05,1.9,319.2,M,-32.0,M,,*50
 $GPRMC,214137.00,A,3857.132458,N,09515.837671,W,0.0,42.3,290125,2.5,E,A,V*64
OK
UserDevice> AT+MMSVRCELL
+MMSRVCELL:
 "servingcell","NOCONN","LTE","FDD",311,480,34F0916,364,2300,4,5,5,D806,-111,-12,-79,10,-
OK
UserDevice> AT+MMNEBCELL
+MMNEBCELL:
 "neighbourcell intra","LTE",2300,364,-12,-111,-80,0,-,-,-,-,-
 "neighbourcell intra","LTE",2300,110,-17,-116,-91,0,-,-,-,-,-
OK
UserDevice> AT+MGPSNMEA
+MGPSNMEA:
 $GPGGA,214138.00,3857.132458,N,09515.837671,W,1,05,1.9,319.2,M,-32.0,M,,*5F
 $GPRMC,214138.00,A,3857.132458,N,09515.837671,W,0.0,42.3,290125,2.5,E,A,V*6B
OK
UserDevice> AT+MMSVRCELL
+MMSRVCELL:
 "servingcell","NOCONN","LTE","FDD",311,480,34F0916,364,2300,4,5,5,D806,-110,-11,-78,10,-
OK
UserDevice> AT+MMNEBCELL
+MMNEBCELL:
 "neighbourcell intra","LTE",2300,364,-11,-110,-80,0,-,-,-,-,-
 "neighbourcell intra","LTE",2300,332,-14,-114,-91,0,-,-,-,-,-
OK
UserDevice> AT+MGPSNMEA
+MGPSNMEA:
 $GPGGA,214139.00,3857.132457,N,09515.837671,W,1,05,1.9,319.2,M,-32.0,M,,*51
 $GPRMC,214139.00,A,3857.132457,N,09515.837671,W,0.0,42.3,290125,2.5,E,A,V*65
OK
UserDevice> AT+MMSVRCELL
+MMSRVCELL:
 "servingcell","NOCONN","LTE","FDD",311,480,34F0916,364,2300,4,5,5,D806,-110,-11,-79,10,-
OK
UserDevice> AT+MMNEBCELL
+MMNEBCELL:
 "neighbourcell intra","LTE",2300,364,-11,-110,-79,0,-,-,-,-,-
 "neighbourcell intra","LTE",2300,332,-15,-115,-91,0,-,-,-,-,-
OK
UserDevice> AT+MGPSNMEA
+MGPSNMEA:
 $GPGGA,214140.00,3857.132458,N,09515.837671,W,1,05,1.9,319.2,M,-32.0,M,,*50
 $GPRMC,214140.00,A,3857.132458,N,09515.837671,W,0.0,42.3,290125,2.5,E,A,V*64
OK
UserDevice> AT+MMSVRCELL
+MMSRVCELL:
 "servingcell","NOCONN","LTE","FDD",311,480,34F0916,364,2300,4,5,5,D806,-110,-11,-78,10,-
OK
UserDevice> AT+MMNEBCELL
+MMNEBCELL:
 "neighbourcell intra","LTE",2300,364,-11,-110,-79,0,-,-,-,-,-
 "neighbourcell intra","LTE",2300,280,-15,-114,-90,0,-,-,-,-,-
OK
UserDevice> AT+MGPSNMEA
+MGPSNMEA:
 $GPGGA,214141.00,3857.132458,N,09515.837670,W,1,05,1.9,319.2,M,-32.0,M,,*50
 $GPRMC,214141.00,A,3857.132458,N,09515.837670,W,0.0,42.3,290125,2.5,E,A,V*64
OK
UserDevice> AT+MMSVRCELL
+MMSRVCELL:
 "servingcell","NOCONN","LTE","FDD",311,480,34F0916,364,2300,4,5,5,D806,-110,-11,-77,10,-
OK
UserDevice> AT+MMNEBCELL
+MMNEBCELL:
 "neighbourcell intra","LTE",2300,364,-11,-110,-77,0,-,-,-,-,-
 "neighbourcell intra","LTE",2300,280,-14,-112,-90,0,-,-,-,-,-
OK
UserDevice> AT+MGPSNMEA
+MGPSNMEA:
 $GPGGA,214142.00,3857.132458,N,09515.837670,W,1,05,1.9,319.2,M,-32.0,M,,*53
 $GPRMC,214142.00,A,3857.132458,N,09515.837670,W,0.0,42.3,290125,2.5,E,A,V*67
OK
UserDevice> AT+MMSVRCELL
+MMSRVCELL:
 "servingcell","NOCONN","LTE","FDD",311,480,34F0916,364,2300,4,5,5,D806,-109,-11,-79,10,-
OK
UserDevice> AT+MMNEBCELL
+MMNEBCELL:
 "neighbourcell intra","LTE",2300,364,-11,-109,-79,0,-,-,-,-,-
 "neighbourcell intra","LTE",2300,280,-13,-111,-90,0,-,-,-,-,-
OK
UserDevice> AT+MGPSNMEA
+MGPSNMEA:
 $GPGGA,214143.00,3857.132458,N,09515.837670,W,1,06,1.7,319.2,M,-32.0,M,,*5F
 $GPRMC,214143.00,A,3857.132458,N,09515.837670,W,0.0,42.3,290125,2.5,E,A,V*66
OK
UserDevice> AT+MMSVRCELL
+MMSRVCELL:
 "servingcell","NOCONN","LTE","FDD",311,480,34F0916,364,2300,4,5,5,D806,-109,-11,-78,9,-
OK
UserDevice> AT+MMNEBCELL
+MMNEBCELL:
 "neighbourcell intra","LTE",2300,364,-11,-109,-78,0,-,-,-,-,-
 "neighbourcell intra","LTE",2300,280,-13,-112,-89,0,-,-,-,-,-
OK
UserDevice> AT+MGPSNMEA
+MGPSNMEA:
 $GPGGA,214144.00,3857.132458,N,09515.837670,W,1,06,1.7,319.2,M,-32.0,M,,*58
 $GPRMC,214144.00,A,3857.132458,N,09515.837670,W,0.0,42.3,290125,2.5,E,A,V*61
OK
UserDevice> AT+MMSVRCELL
+MMSRVCELL:
 "servingcell","NOCONN","LTE","FDD",311,480,34F0916,364,2300,4,5,5,D806,-109,-11,-78,10,-
OK
UserDevice> AT+MMNEBCELL
+MMNEBCELL:
 "neighbourcell intra","LTE",2300,364,-11,-109,-77,0,-,-,-,-,-
 "neighbourcell intra","LTE",2300,280,-14,-111,-90,0,-,-,-,-,-
 "neighbourcell intra","LTE",2300,332,-18,-116,-90,0,-,-,-,-,-
OK
UserDevice> AT+MGPSNMEA
+MGPSNMEA:
 $GPGGA,214145.00,3857.132458,N,09515.837670,W,1,06,1.7,319.2,M,-32.0,M,,*59
 $GPRMC,214145.00,A,3857.132458,N,09515.837670,W,0.0,42.3,290125,2.5,E,A,V*60
OK
UserDevice> AT+MMSVRCELL
+MMSRVCELL:
 "servingcell","NOCONN","LTE","FDD",311,480,34F0916,364,2300,4,5,5,D806,-110,-12,-78,10,-
OK
UserDevice> AT+MMNEBCELL
+MMNEBCELL:
 "neighbourcell intra","LTE",2300,364,-12,-110,-79,0,-,-,-,-,-
 "neighbourcell intra","LTE",2300,280,-14,-111,-89,0,-,-,-,-,-
OK
UserDevice> AT+MGPSNMEA
+MGPSNMEA:
 $GPGGA,214146.00,3857.132458,N,09515.837670,W,1,06,1.7,319.2,M,-32.0,M,,*5A
 $GPRMC,214146.00,A,3857.132458,N,09515.837670,W,0.0,42.3,290125,2.5,E,A,V*63
OK
UserDevice> AT+MMSVRCELL
+MMSRVCELL:
 "servingcell","NOCONN","LTE","FDD",311,480,34F0916,364,2300,4,5,5,D806,-109,-11,-79,11,-
OK
UserDevice> AT+MMNEBCELL
+MMNEBCELL:
 "neighbourcell intra","LTE",2300,364,-10,-109,-79,0,-,-,-,-,-
 "neighbourcell intra","LTE",2300,280,-14,-112,-89,0,-,-,-,-,-
OK
UserDevice> AT+MGPSNMEA
+MGPSNMEA:
 $GPGGA,214148.00,3857.132458,N,09515.837670,W,1,06,1.7,319.2,M,-32.0,M,,*54
 $GPRMC,214148.00,A,3857.132458,N,09515.837670,W,0.0,42.3,290125,2.5,E,A,V*6D
OK
UserDevice> AT+MMSVRCELL
+MMSRVCELL:
 "servingcell","NOCONN","LTE","FDD",311,480,34F0916,364,2300,4,5,5,D806,-109,-11,-78,9,-
OK
UserDevice> AT+MMNEBCELL
+MMNEBCELL:
 "neighbourcell intra","LTE",2300,364,-11,-110,-78,0,-,-,-,-,-
 "neighbourcell intra","LTE",2300,280,-13,-111,-90,0,-,-,-,-,-
OK
UserDevice> AT+MGPSNMEA
+MGPSNMEA:
 $GPGGA,214149.00,3857.132458,N,09515.837669,W,1,06,1.7,319.2,M,-32.0,M,,*5D
 $GPRMC,214149.00,A,3857.132458,N,09515.837669,W,0.0,42.3,290125,2.5,E,A,V*64
OK
UserDevice> AT+MMSVRCELL
+MMSRVCELL:
 "servingcell","NOCONN","LTE","FDD",311,480,34F0916,364,2300,4,5,5,D806,-110,-11,-79,11,-
OK
UserDevice> AT+MMNEBCELL
+MMNEBCELL:
 "neighbourcell intra","LTE",2300,364,-11,-109,-77,0,-,-,-,-,-
 "neighbourcell intra","LTE",2300,110,-16,-114,-89,0,-,-,-,-,-
OK
UserDevice> AT+MGPSNMEA
+MGPSNMEA:
 $GPGGA,214150.00,3857.132458,N,09515.837669,W,1,06,1.7,319.2,M,-32.0,M,,*55
 $GPRMC,214150.00,A,3857.132458,N,09515.837669,W,0.0,42.3,290125,2.5,E,A,V*6C
OK
UserDevice> AT+MMSVRCELL
+MMSRVCELL:
 "servingcell","NOCONN","LTE","FDD",311,480,34F0916,364,2300,4,5,5,D806,-110,-11,-77,10,-
OK
UserDevice> AT+MMNEBCELL
+MMNEBCELL:
 "neighbourcell intra","LTE",2300,364,-11,-109,-79,0,-,-,-,-,-
 "neighbourcell intra","LTE",2300,110,-17,-115,-89,0,-,-,-,-,-
OK
UserDevice> AT+MGPSNMEA
+MGPSNMEA:
 $GPGGA,214151.00,3857.132458,N,09515.837669,W,1,06,1.7,319.2,M,-32.0,M,,*54
 $GPRMC,214151.00,A,3857.132458,N,09515.837669,W,0.0,42.3,290125,2.5,E,A,V*6D
OK
UserDevice> AT+MMSVRCELL
+MMSRVCELL:
 "servingcell","NOCONN","LTE","FDD",311,480,34F0916,364,2300,4,5,5,D806,-108,-11,-76,10,-
OK
UserDevice> AT+MMNEBCELL
+MMNEBCELL:
 "neighbourcell intra","LTE",2300,364,-11,-108,-77,0,-,-,-,-,-
 "neighbourcell intra","LTE",2300,110,-17,-114,-88,0,-,-,-,-,-
OK
UserDevice> AT+MGPSNMEA
+MGPSNMEA:
 $GPGGA,214152.00,3857.132458,N,09515.837669,W,1,05,1.9,319.2,M,-32.0,M,,*5A
 $GPRMC,214152.00,A,3857.132458,N,09515.837669,W,0.0,42.3,290125,2.5,E,A,V*6E
OK
UserDevice> AT+MMSVRCELL
+MMSRVCELL:
 "servingcell","NOCONN","LTE","FDD",311,480,34F0916,364,2300,4,5,5,D806,-108,-10,-79,11,-
OK
UserDevice> AT+MMNEBCELL
+MMNEBCELL:
 "neighbourcell intra","LTE",2300,364,-10,-108,-78,0,-,-,-,-,-
 "neighbourcell intra","LTE",2300,280,-15,-113,-90,0,-,-,-,-,-
OK
UserDevice> AT+MGPSNMEA
+MGPSNMEA:
 $GPGGA,214153.00,3857.132458,N,09515.837669,W,1,06,1.7,319.2,M,-32.0,M,,*56
 $GPRMC,214153.00,A,3857.132458,N,09515.837669,W,0.0,42.3,290125,2.5,E,A,V*6F
OK
UserDevice> AT+MMSVRCELL
+MMSRVCELL:
 "servingcell","NOCONN","LTE","FDD",311,480,34F0916,364,2300,4,5,5,D806,-109,-11,-78,10,-
OK
UserDevice> AT+MMNEBCELL
+MMNEBCELL:
 "neighbourcell intra","LTE",2300,364,-11,-109,-78,0,-,-,-,-,-
 "neighbourcell intra","LTE",2300,280,-15,-114,-89,0,-,-,-,-,-
OK
UserDevice> AT+MGPSNMEA
+MGPSNMEA:
 $GPGGA,214154.00,3857.132458,N,09515.837669,W,1,06,1.7,319.2,M,-32.0,M,,*51
 $GPRMC,214154.00,A,3857.132458,N,09515.837669,W,0.0,42.3,290125,2.5,E,A,V*68
OK
UserDevice> AT+MMSVRCELL
+MMSRVCELL:
 "servingcell","NOCONN","LTE","FDD",311,480,34F0916,364,2300,4,5,5,D806,-109,-11,-79,10,-
OK
UserDevice> AT+MMNEBCELL
+MMNEBCELL:
 "neighbourcell intra","LTE",2300,364,-11,-110,-79,0,-,-,-,-,-
OK
UserDevice> AT+MGPSNMEA
+MGPSNMEA:
 $GPGGA,214155.00,3857.132459,N,09515.837669,W,1,06,1.7,319.2,M,-32.0,M,,*51
 $GPRMC,214155.00,A,3857.132459,N,09515.837669,W,0.0,42.3,290125,2.5,E,A,V*68
OK
UserDevice> AT+MMSVRCELL
+MMSRVCELL:
 "servingcell","NOCONN","LTE","FDD",311,480,34F0916,364,2300,4,5,5,D806,-110,-11,-77,9,-
OK
UserDevice> AT+MMNEBCELL
+MMNEBCELL:
 "neighbourcell intra","LTE",2300,364,-12,-110,-79,0,-,-,-,-,-
 "neighbourcell intra","LTE",2300,110,-20,-119,-90,0,-,-,-,-,-
OK
UserDevice> AT+MGPSNMEA
+MGPSNMEA:
 $GPGGA,214156.00,3857.132459,N,09515.837668,W,1,06,1.7,319.2,M,-32.0,M,,*53
 $GPRMC,214156.00,A,3857.132459,N,09515.837668,W,0.0,42.3,290125,2.5,E,A,V*6A
OK
UserDevice> AT+MMSVRCELL
+MMSRVCELL:
 "servingcell","NOCONN","LTE","FDD",311,480,34F0916,364,2300,4,5,5,D806,-111,-11,-80,9,-
OK
UserDevice> AT+MMNEBCELL
+MMNEBCELL:
 "neighbourcell intra","LTE",2300,364,-11,-111,-78,0,-,-,-,-,-
 "neighbourcell intra","LTE",2300,110,-17,-117,-91,0,-,-,-,-,-
 "neighbourcell intra","LTE",2300,280,-14,-115,-90,0,-,-,-,-,-
OK
UserDevice> AT+MGPSNMEA
+MGPSNMEA:
 $GPGGA,214157.00,3857.132459,N,09515.837668,W,1,06,1.7,319.2,M,-32.0,M,,*52
 $GPRMC,214157.00,A,3857.132459,N,09515.837668,W,0.0,42.3,290125,2.5,E,A,V*6B
OK
UserDevice> AT+MMSVRCELL
+MMSRVCELL:
 "servingcell","NOCONN","LTE","FDD",311,480,34F0916,364,2300,4,5,5,D806,-112,-12,-80,9,-
OK
UserDevice> AT+MMNEBCELL
+MMNEBCELL:
 "neighbourcell intra","LTE",2300,364,-12,-112,-81,0,-,-,-,-,-
 "neighbourcell intra","LTE",2300,110,-14,-114,-91,0,-,-,-,-,-
OK
UserDevice> AT+MGPSNMEA
+MGPSNMEA:
 $GPGGA,214158.00,3857.132458,N,09515.837668,W,1,06,1.7,319.2,M,-32.0,M,,*5C
 $GPRMC,214158.00,A,3857.132458,N,09515.837668,W,0.0,42.3,290125,2.5,E,A,V*65
OK
UserDevice> AT+MMSVRCELL
+MMSRVCELL:
 "servingcell","NOCONN","LTE","FDD",311,480,34F0916,364,2300,4,5,5,D806,-111,-12,-79,10,-
OK
UserDevice> AT+MMNEBCELL
+MMNEBCELL:
 "neighbourcell intra","LTE",2300,364,-12,-111,-78,0,-,-,-,-,-
 "neighbourcell intra","LTE",2300,110,-14,-111,-90,0,-,-,-,-,-
OK
UserDevice> AT+MGPSNMEA
+MGPSNMEA:
 $GPGGA,214200.00,3857.132458,N,09515.837668,W,1,06,1.7,319.2,M,-32.0,M,,*52
 $GPRMC,214200.00,A,3857.132458,N,09515.837668,W,0.0,42.3,290125,2.5,E,A,V*6B
OK
UserDevice> AT+MMSVRCELL
+MMSRVCELL:
 "servingcell","NOCONN","LTE","FDD",311,480,34F0916,364,2300,4,5,5,D806,-112,-13,-78,9,-
OK
UserDevice> AT+MMNEBCELL
+MMNEBCELL:
 "neighbourcell intra","LTE",2300,364,-13,-112,-81,0,-,-,-,-,-
 "neighbourcell intra","LTE",2300,280,-14,-113,-90,0,-,-,-,-,-
 "neighbourcell intra","LTE",2300,110,-18,-117,-90,0,-,-,-,-,-
OK
UserDevice> AT+MGPSNMEA
+MGPSNMEA:
 $GPGGA,214201.00,3857.132458,N,09515.837668,W,1,06,1.7,319.2,M,-32.0,M,,*53
 $GPRMC,214201.00,A,3857.132458,N,09515.837668,W,0.0,42.3,290125,2.5,E,A,V*6A
OK
UserDevice> AT+MMSVRCELL
+MMSRVCELL:
 "servingcell","NOCONN","LTE","FDD",311,480,34F0916,364,2300,4,5,5,D806,-112,-11,-78,10,-
OK
UserDevice> AT+MMNEBCELL
+MMNEBCELL:
 "neighbourcell intra","LTE",2300,364,-12,-112,-78,0,-,-,-,-,-
 "neighbourcell intra","LTE",2300,110,-20,-119,-89,0,-,-,-,-,-
OK
UserDevice> AT+MGPSNMEA
+MGPSNMEA:
 $GPGGA,214202.00,3857.132457,N,09515.837668,W,1,06,1.7,319.2,M,-32.0,M,,*5F
 $GPRMC,214202.00,A,3857.132457,N,09515.837668,W,0.0,42.3,290125,2.5,E,A,V*66
OK
UserDevice> AT+MMSVRCELL
+MMSRVCELL:
 "servingcell","NOCONN","LTE","FDD",311,480,34F0916,364,2300,4,5,5,D806,-110,-11,-80,12,-
OK
UserDevice> AT+MMNEBCELL
+MMNEBCELL:
 "neighbourcell intra","LTE",2300,364,-11,-110,-79,0,-,-,-,-,-
 "neighbourcell intra","LTE",2300,110,-20,-124,-89,0,-,-,-,-,-
OK
UserDevice> AT+MGPSNMEA
+MGPSNMEA:
 $GPGGA,214203.00,3857.132458,N,09515.837667,W,1,07,1.5,319.2,M,-32.0,M,,*5D
 $GPRMC,214203.00,A,3857.132458,N,09515.837667,W,0.0,42.3,290125,2.5,E,A,V*67
OK
UserDevice> AT+MMSVRCELL
+MMSRVCELL:
 "servingcell","NOCONN","LTE","FDD",311,480,34F0916,364,2300,4,5,5,D806,-108,-11,-73,9,-
OK
UserDevice> AT+MMNEBCELL
+MMNEBCELL:
 "neighbourcell intra","LTE",2300,364,-11,-108,-75,0,-,-,-,-,-
 "neighbourcell intra","LTE",2300,280,-18,-113,-86,0,-,-,-,-,-
 "neighbourcell intra","LTE",2300,110,-14,-111,-86,0,-,-,-,-,-
OK
UserDevice> AT+MGPSNMEA
+MGPSNMEA:
 $GPGGA,214204.00,3857.132458,N,09515.837668,W,1,07,1.5,319.2,M,-32.0,M,,*55
 $GPRMC,214204.00,A,3857.132458,N,09515.837668,W,0.0,42.3,290125,2.5,E,A,V*6F
OK
UserDevice> AT+MMSVRCELL
+MMSRVCELL:
 "servingcell","NOCONN","LTE","FDD",311,480,34F0916,364,2300,4,5,5,D806,-110,-12,-80,10,-
OK
UserDevice> AT+MMNEBCELL
+MMNEBCELL:
 "neighbourcell intra","LTE",2300,364,-12,-110,-76,0,-,-,-,-,-
 "neighbourcell intra","LTE",2300,110,-20,-123,-88,0,-,-,-,-,-
 "neighbourcell intra","LTE",2300,280,-18,-113,-87,0,-,-,-,-,-
OK
UserDevice> AT+MGPSNMEA
+MGPSNMEA:
 $GPGGA,214205.00,3857.132458,N,09515.837667,W,1,07,1.5,319.2,M,-32.0,M,,*5B
 $GPRMC,214205.00,A,3857.132458,N,09515.837667,W,0.0,42.3,290125,2.5,E,A,V*61
OK
UserDevice> AT+MMSVRCELL
+MMSRVCELL:
 "servingcell","NOCONN","LTE","FDD",311,480,34F0916,364,2300,4,5,5,D806,-110,-11,-78,10,-
OK
UserDevice> AT+MMNEBCELL
+MMNEBCELL:
 "neighbourcell intra","LTE",2300,364,-11,-110,-78,0,-,-,-,-,-
 "neighbourcell intra","LTE",2300,110,-20,-118,-89,0,-,-,-,-,-
 "neighbourcell intra","LTE",2300,280,-15,-113,-89,0,-,-,-,-,-
 "neighbourcell intra","LTE",2300,104,-20,-127,-89,0,-,-,-,-,-
OK
UserDevice> AT+MGPSNMEA
+MGPSNMEA:
 $GPGGA,214206.00,3857.132458,N,09515.837667,W,1,07,1.5,319.2,M,-32.0,M,,*58
 $GPRMC,214206.00,A,3857.132458,N,09515.837667,W,0.0,42.3,290125,2.5,E,A,V*62
OK
UserDevice> AT+MMSVRCELL
+MMSRVCELL:
 "servingcell","NOCONN","LTE","FDD",311,480,34F0916,364,2300,4,5,5,D806,-110,-12,-81,10,-
OK
UserDevice> AT+MMNEBCELL
+MMNEBCELL:
 "neighbourcell intra","LTE",2300,364,-12,-111,-79,0,-,-,-,-,-
 "neighbourcell intra","LTE",2300,110,-16,-114,-93,0,-,-,-,-,-
OK
UserDevice> AT+MGPSNMEA
+MGPSNMEA:
 $GPGGA,214207.00,3857.132458,N,09515.837667,W,1,08,1.5,319.2,M,-32.0,M,,*56
 $GPRMC,214207.00,A,3857.132458,N,09515.837667,W,0.0,42.3,290125,2.5,E,A,V*63
OK
UserDevice> AT+MMSVRCELL
+MMSRVCELL:
 "servingcell","NOCONN","LTE","FDD",311,480,34F0916,364,2300,4,5,5,D806,-112,-12,-80,10,-
OK
UserDevice> AT+MMNEBCELL
+MMNEBCELL:
 "neighbourcell intra","LTE",2300,364,-12,-112,-81,0,-,-,-,-,-
 "neighbourcell intra","LTE",2300,110,-16,-115,-92,0,-,-,-,-,-
 "neighbourcell intra","LTE",2300,280,-17,-116,-92,0,-,-,-,-,-
OK
UserDevice> AT+MGPSNMEA
+MGPSNMEA:
 $GPGGA,214208.00,3857.132458,N,09515.837667,W,1,08,1.5,319.2,M,-32.0,M,,*59
 $GPRMC,214208.00,A,3857.132458,N,09515.837667,W,0.0,42.3,290125,2.5,E,A,V*6C
OK
UserDevice> AT+MMSVRCELL
+MMSRVCELL:
 "servingcell","NOCONN","LTE","FDD",311,480,34F0916,364,2300,4,5,5,D806,-114,-13,-82,9,-
OK
UserDevice> AT+MMNEBCELL
+MMNEBCELL:
 "neighbourcell intra","LTE",2300,364,-13,-114,-82,0,-,-,-,-,-
 "neighbourcell intra","LTE",2300,110,-13,-113,-92,0,-,-,-,-,-
OK
UserDevice> AT+MGPSNMEA
+MGPSNMEA:
 $GPGGA,214209.00,3857.132458,N,09515.837667,W,1,08,1.5,319.2,M,-32.0,M,,*58
 $GPRMC,214209.00,A,3857.132458,N,09515.837667,W,0.0,42.3,290125,2.5,E,A,V*6D
OK
UserDevice> AT+MMSVRCELL
+MMSRVCELL:
 "servingcell","NOCONN","LTE","FDD",311,480,34F0916,364,2300,4,5,5,D806,-113,-11,-81,10,-
OK
UserDevice> AT+MMNEBCELL
+MMNEBCELL:
 "neighbourcell intra","LTE",2300,364,-11,-113,-83,0,-,-,-,-,-
 "neighbourcell intra","LTE",2300,110,-16,-117,-94,0,-,-,-,-,-
 "neighbourcell intra","LTE",2300,280,-14,-115,-94,0,-,-,-,-,-
OK
UserDevice> AT+MGPSNMEA
+MGPSNMEA:
 $GPGGA,214211.00,3857.132458,N,09515.837666,W,1,07,1.5,319.2,M,-32.0,M,,*5F
 $GPRMC,214211.00,A,3857.132458,N,09515.837666,W,0.0,42.3,290125,2.5,E,A,V*65
OK
UserDevice> AT+MMSVRCELL
+MMSRVCELL:
 "servingcell","NOCONN","LTE","FDD",311,480,34F0916,364,2300,4,5,5,D806,-112,-11,-80,9,-
OK
UserDevice> AT+MMNEBCELL
+MMNEBCELL:
 "neighbourcell intra","LTE",2300,364,-11,-111,-77,0,-,-,-,-,-
 "neighbourcell intra","LTE",2300,110,-16,-116,-90,0,-,-,-,-,-
OK
UserDevice> AT+MGPSNMEA
+MGPSNMEA:
 $GPGGA,214212.00,3857.132458,N,09515.837666,W,1,07,1.5,319.2,M,-32.0,M,,*5C
 $GPRMC,214212.00,A,3857.132458,N,09515.837666,W,0.0,42.3,290125,2.5,E,A,V*66
OK
UserDevice> AT+MMSVRCELL
+MMSRVCELL:
 "servingcell","NOCONN","LTE","FDD",311,480,34F0916,364,2300,4,5,5,D806,-110,-11,-80,11,-
OK
UserDevice> AT+MMNEBCELL
+MMNEBCELL:
 "neighbourcell intra","LTE",2300,364,-11,-110,-79,0,-,-,-,-,-
 "neighbourcell intra","LTE",2300,110,-16,-115,-90,0,-,-,-,-,-
OK
UserDevice> AT+MGPSNMEA
+MGPSNMEA:
 $GPGGA,214213.00,3857.132458,N,09515.837666,W,1,06,1.6,319.2,M,-32.0,M,,*5F
 $GPRMC,214213.00,A,3857.132458,N,09515.837666,W,0.0,42.3,290125,2.5,E,A,V*67
OK
UserDevice> AT+MMSVRCELL
+MMSRVCELL:
 "servingcell","NOCONN","LTE","FDD",311,480,34F0916,364,2300,4,5,5,D806,-112,-11,-80,11,-
OK
UserDevice> AT+MMNEBCELL
+MMNEBCELL:
 "neighbourcell intra","LTE",2300,364,-11,-111,-78,0,-,-,-,-,-
 "neighbourcell intra","LTE",2300,110,-17,-117,-89,0,-,-,-,-,-
OK
UserDevice> AT+MGPSNMEA
+MGPSNMEA:
 $GPGGA,214214.00,3857.132458,N,09515.837666,W,1,06,1.6,319.2,M,-32.0,M,,*58
 $GPRMC,214214.00,A,3857.132458,N,09515.837666,W,0.0,42.3,290125,2.5,E,A,V*60
OK
UserDevice> AT+MMSVRCELL
+MMSRVCELL:
 "servingcell","NOCONN","LTE","FDD",311,480,34F0916,364,2300,4,5,5,D806,-110,-11,-77,12,-
OK
UserDevice> AT+MMNEBCELL
+MMNEBCELL:
 "neighbourcell intra","LTE",2300,364,-11,-109,-77,0,-,-,-,-,-
 "neighbourcell intra","LTE",2300,110,-18,-116,-90,0,-,-,-,-,-
 "neighbourcell intra","LTE",2300,280,-16,-113,-90,0,-,-,-,-,-
OK
UserDevice> AT+MGPSNMEA
+MGPSNMEA:
 $GPGGA,214215.00,3857.132458,N,09515.837666,W,1,07,1.5,319.2,M,-32.0,M,,*5B
 $GPRMC,214215.00,A,3857.132458,N,09515.837666,W,0.0,42.3,290125,2.5,E,A,V*61
OK
UserDevice> AT+MMSVRCELL
+MMSRVCELL:
 "servingcell","NOCONN","LTE","FDD",311,480,34F0916,364,2300,4,5,5,D806,-109,-11,-77,9,-
OK
UserDevice> AT+MMNEBCELL
+MMNEBCELL:
 "neighbourcell intra","LTE",2300,364,-11,-109,-80,0,-,-,-,-,-
 "neighbourcell intra","LTE",2300,110,-17,-115,-92,0,-,-,-,-,-
 "neighbourcell intra","LTE",2300,104,-20,-121,-92,0,-,-,-,-,-
 "neighbourcell intra","LTE",2300,280,-15,-112,-92,0,-,-,-,-,-
OK
UserDevice> AT+MGPSNMEA
+MGPSNMEA:
 $GPGGA,214216.00,3857.132458,N,09515.837667,W,1,07,1.5,319.2,M,-32.0,M,,*59
 $GPRMC,214216.00,A,3857.132458,N,09515.837667,W,0.0,42.3,290125,2.5,E,A,V*63
OK
UserDevice> AT+MMSVRCELL
+MMSRVCELL:
 "servingcell","NOCONN","LTE","FDD",311,480,34F0916,364,2300,4,5,5,D806,-109,-11,-77,10,-
OK
UserDevice> AT+MMNEBCELL
+MMNEBCELL:
 "neighbourcell intra","LTE",2300,364,-11,-109,-76,0,-,-,-,-,-
 "neighbourcell intra","LTE",2300,110,-20,-117,-87,0,-,-,-,-,-
 "neighbourcell intra","LTE",2300,280,-17,-114,-87,0,-,-,-,-,-
OK
UserDevice> AT+MGPSNMEA
+MGPSNMEA:
 $GPGGA,214217.00,3857.132459,N,09515.837667,W,1,07,1.5,319.2,M,-32.0,M,,*59
 $GPRMC,214217.00,A,3857.132459,N,09515.837667,W,0.0,42.3,290125,2.5,E,A,V*63
OK
UserDevice> AT+MMSVRCELL
+MMSRVCELL:
 "servingcell","NOCONN","LTE","FDD",311,480,34F0916,364,2300,4,5,5,D806,-107,-10,-77,12,-
OK
UserDevice> AT+MMNEBCELL
+MMNEBCELL:
 "neighbourcell intra","LTE",2300,364,-10,-107,-76,0,-,-,-,-,-
OK
UserDevice> AT+MGPSNMEA
+MGPSNMEA:
 $GPGGA,214218.00,3857.132459,N,09515.837667,W,1,07,1.5,319.2,M,-32.0,M,,*56
 $GPRMC,214218.00,A,3857.132459,N,09515.837667,W,0.0,42.3,290125,2.5,E,A,V*6C
OK
UserDevice> AT+MMSVRCELL
+MMSRVCELL:
 "servingcell","NOCONN","LTE","FDD",311,480,34F0916,364,2300,4,5,5,D806,-107,-10,-74,10,-
OK
UserDevice> AT+MMNEBCELL
+MMNEBCELL:
 "neighbourcell intra","LTE",2300,364,-10,-107,-73,0,-,-,-,-,-
 "neighbourcell intra","LTE",2300,110,-18,-113,-85,0,-,-,-,-,-
 "neighbourcell intra","LTE",2300,280,-18,-114,-85,0,-,-,-,-,-
OK
UserDevice> AT+MGPSNMEA
+MGPSNMEA:
 $GPGGA,214219.00,3857.132459,N,09515.837667,W,1,07,1.5,319.2,M,-32.0,M,,*57
 $GPRMC,214219.00,A,3857.132459,N,09515.837667,W,0.0,42.3,290125,2.5,E,A,V*6D
OK
UserDevice> AT+MMSVRCELL
+MMSRVCELL:
 "servingcell","NOCONN","LTE","FDD",311,480,34F0916,364,2300,4,5,5,D806,-104,-10,-70,9,-
OK
UserDevice> AT+MMNEBCELL
+MMNEBCELL:
 "neighbourcell intra","LTE",2300,364,-10,-104,-74,0,-,-,-,-,-
 "neighbourcell intra","LTE",2300,110,-16,-109,-86,0,-,-,-,-,-
OK
UserDevice> AT+MGPSNMEA
+MGPSNMEA:
 $GPGGA,214220.00,3857.132458,N,09515.837667,W,1,07,1.5,319.2,M,-32.0,M,,*5C
 $GPRMC,214220.00,A,3857.132458,N,09515.837667,W,0.0,42.3,290125,2.5,E,A,V*66
OK
UserDevice> AT+MMSVRCELL
+MMSRVCELL:
 "servingcell","NOCONN","LTE","FDD",311,480,34F0916,364,2300,4,5,5,D806,-103,-10,-72,11,-
OK
UserDevice> AT+MMNEBCELL
+MMNEBCELL:
 "neighbourcell intra","LTE",2300,364,-10,-103,-72,0,-,-,-,-,-
 "neighbourcell intra","LTE",2300,280,-20,-112,-81,0,-,-,-,-,-
 "neighbourcell intra","LTE",2300,110,-20,-115,-81,0,-,-,-,-,-
 "neighbourcell intra","LTE",2300,260,-20,-113,-81,0,-,-,-,-,-
OK
UserDevice> AT+MGPSNMEA
+MGPSNMEA:
 $GPGGA,214221.00,3857.132458,N,09515.837667,W,1,07,1.5,319.2,M,-32.0,M,,*5D
 $GPRMC,214221.00,A,3857.132458,N,09515.837667,W,0.0,42.3,290125,2.5,E,A,V*67
OK
UserDevice> AT+MMSVRCELL
+MMSRVCELL:
 "servingcell","NOCONN","LTE","FDD",311,480,34F0916,364,2300,4,5,5,D806,-100,-11,-70,10,-
OK
UserDevice> AT+MMNEBCELL
+MMNEBCELL:
 "neighbourcell intra","LTE",2300,364,-11,-100,-70,0,-,-,-,-,-
 "neighbourcell intra","LTE",2300,110,-17,-106,-82,0,-,-,-,-,-
OK
UserDevice> AT+MGPSNMEA
+MGPSNMEA:
 $GPGGA,214223.00,3857.132456,N,09515.837667,W,1,08,1.5,319.2,M,-32.0,M,,*5E
 $GPRMC,214223.00,A,3857.132456,N,09515.837667,W,0.0,42.3,290125,2.5,E,A,V*6B
OK
UserDevice> AT+MMSVRCELL
+MMSRVCELL:
 "servingcell","NOCONN","LTE","FDD",311,480,34F0916,364,2300,4,5,5,D806,-101,-11,-69,12,-
OK
UserDevice> AT+MMNEBCELL
+MMNEBCELL:
 "neighbourcell intra","LTE",2300,364,-11,-101,-72,0,-,-,-,-,-
 "neighbourcell intra","LTE",2300,110,-18,-108,-80,0,-,-,-,-,-
 "neighbourcell intra","LTE",2300,280,-20,-112,-79,0,-,-,-,-,-
OK
UserDevice> AT+MGPSNMEA
+MGPSNMEA:
 $GPGGA,214224.00,3857.132455,N,09515.837667,W,1,08,1.5,319.2,M,-32.0,M,,*5A
 $GPRMC,214224.00,A,3857.132455,N,09515.837667,W,0.0,42.3,290125,2.5,E,A,V*6F
OK
UserDevice> AT+MMSVRCELL
+MMSRVCELL:
 "servingcell","NOCONN","LTE","FDD",311,480,34F0916,364,2300,4,5,5,D806,-100,-11,-66,9,-
OK
UserDevice> AT+MMNEBCELL
+MMNEBCELL:
 "neighbourcell intra","LTE",2300,364,-11,-101,-66,0,-,-,-,-,-
 "neighbourcell intra","LTE",2300,110,-17,-106,-80,0,-,-,-,-,-
OK
UserDevice> AT+MGPSNMEA
+MGPSNMEA:
 $GPGGA,214225.00,3857.132454,N,09515.837667,W,1,08,1.5,319.2,M,-32.0,M,,*5A
 $GPRMC,214225.00,A,3857.132454,N,09515.837667,W,0.0,42.3,290125,2.5,E,A,V*6F
OK
UserDevice> AT+MMSVRCELL
+MMSRVCELL:
 "servingcell","NOCONN","LTE","FDD",311,480,34F0916,364,2300,4,5,5,D806,-100,-10,-70,11,-
OK
UserDevice> AT+MMNEBCELL
+MMNEBCELL:
 "neighbourcell intra","LTE",2300,364,-10,-100,-69,0,-,-,-,-,-
 "neighbourcell intra","LTE",2300,110,-16,-106,-81,0,-,-,-,-,-
OK
UserDevice> AT+MGPSNMEA
+MGPSNMEA:
 $GPGGA,214226.00,3857.132454,N,09515.837667,W,1,08,1.5,319.2,M,-32.0,M,,*59
 $GPRMC,214226.00,A,3857.132454,N,09515.837667,W,0.0,42.3,290125,2.5,E,A,V*6C
OK
UserDevice> AT+MMSVRCELL
+MMSRVCELL:
 "servingcell","NOCONN","LTE","FDD",311,480,34F0916,364,2300,4,5,5,D806,-100,-11,-67,9,-
OK
UserDevice> AT+MMNEBCELL
+MMNEBCELL:
 "neighbourcell intra","LTE",2300,364,-11,-101,-70,0,-,-,-,-,-
 "neighbourcell intra","LTE",2300,110,-14,-103,-81,0,-,-,-,-,-
OK
UserDevice> AT+MGPSNMEA
+MGPSNMEA:
 $GPGGA,214227.00,3857.132452,N,09515.837667,W,1,08,1.5,319.2,M,-32.0,M,,*5E
 $GPRMC,214227.00,A,3857.132452,N,09515.837667,W,0.0,42.3,290125,2.5,E,A,V*6B
OK
UserDevice> AT+MMSVRCELL
+MMSRVCELL:
 "servingcell","NOCONN","LTE","FDD",311,480,34F0916,364,2300,4,5,5,D806,-100,-11,-67,11,-
OK
UserDevice> AT+MMNEBCELL
+MMNEBCELL:
 "neighbourcell intra","LTE",2300,364,-11,-99,-67,0,-,-,-,-,-
 "neighbourcell intra","LTE",2300,110,-15,-103,-79,0,-,-,-,-,-
OK
UserDevice> AT+MGPSNMEA
+MGPSNMEA:
 $GPGGA,214228.00,3857.132449,N,09515.837668,W,1,08,1.5,319.2,M,-32.0,M,,*54
 $GPRMC,214228.00,A,3857.132449,N,09515.837668,W,0.0,42.3,290125,2.5,E,A,V*61
OK
UserDevice> AT+MMSVRCELL
+MMSRVCELL:
 "servingcell","NOCONN","LTE","FDD",311,480,34F0916,364,2300,4,5,5,D806,-99,-11,-68,10,-
OK
UserDevice> AT+MMNEBCELL
+MMNEBCELL:
 "neighbourcell intra","LTE",2300,364,-11,-99,-67,0,-,-,-,-,-
 "neighbourcell intra","LTE",2300,110,-16,-104,-79,0,-,-,-,-,-
OK
UserDevice> AT+MGPSNMEA
+MGPSNMEA:
 $GPGGA,214229.00,3857.132448,N,09515.837668,W,1,08,1.5,319.2,M,-32.0,M,,*54
 $GPRMC,214229.00,A,3857.132448,N,09515.837668,W,0.0,42.3,290125,2.5,E,A,V*61
OK
UserDevice> AT+MMSVRCELL
+MMSRVCELL:
 "servingcell","NOCONN","LTE","FDD",311,480,34F0916,364,2300,4,5,5,D806,-99,-11,-69,12,-
OK
UserDevice> AT+MMNEBCELL
+MMNEBCELL:
 "neighbourcell intra","LTE",2300,364,-11,-99,-70,0,-,-,-,-,-
 "neighbourcell intra","LTE",2300,110,-18,-106,-82,0,-,-,-,-,-
OK
UserDevice> AT+MGPSNMEA
+MGPSNMEA:
 $GPGGA,214230.00,3857.132446,N,09515.837668,W,1,08,1.5,319.2,M,-32.0,M,,*52
 $GPRMC,214230.00,A,3857.132446,N,09515.837668,W,0.0,42.3,290125,2.5,E,A,V*67
OK
UserDevice> AT+MMSVRCELL
+MMSRVCELL:
 "servingcell","NOCONN","LTE","FDD",311,480,34F0916,364,2300,4,5,5,D806,-100,-11,-67,12,-
OK
UserDevice> AT+MMNEBCELL
+MMNEBCELL:
 "neighbourcell intra","LTE",2300,364,-11,-100,-70,0,-,-,-,-,-
 "neighbourcell intra","LTE",2300,110,-19,-107,-79,0,-,-,-,-,-
 "neighbourcell intra","LTE",2300,280,-17,-104,-79,0,-,-,-,-,-
 "neighbourcell intra","LTE",2300,384,-20,-117,-79,0,-,-,-,-,-
OK
UserDevice> AT+MGPSNMEA
+MGPSNMEA:
 $GPGGA,214231.00,3857.132444,N,09515.837668,W,1,08,1.5,319.2,M,-32.0,M,,*51
 $GPRMC,214231.00,A,3857.132444,N,09515.837668,W,0.0,42.3,290125,2.5,E,A,V*64
OK
UserDevice> AT+MMSVRCELL
+MMSRVCELL:
 "servingcell","NOCONN","LTE","FDD",311,480,34F0916,364,2300,4,5,5,D806,-98,-10,-67,9,-
OK
UserDevice> AT+MMNEBCELL
+MMNEBCELL:
 "neighbourcell intra","LTE",2300,364,-10,-98,-67,0,-,-,-,-,-
 "neighbourcell intra","LTE",2300,280,-17,-104,-78,0,-,-,-,-,-
 "neighbourcell intra","LTE",2300,110,-18,-106,-78,0,-,-,-,-,-
OK
UserDevice> AT+MGPSNMEA
+MGPSNMEA:
 $GPGGA,214232.00,3857.132442,N,09515.837669,W,1,08,1.5,319.2,M,-32.0,M,,*55
 $GPRMC,214232.00,A,3857.132442,N,09515.837669,W,0.0,42.3,290125,2.5,E,A,V*60
OK
UserDevice> AT+MMSVRCELL
+MMSRVCELL:
 "servingcell","NOCONN","LTE","FDD",311,480,34F0916,364,2300,4,5,5,D806,-99,-10,-70,11,-
OK
UserDevice> AT+MMNEBCELL
+MMNEBCELL:
 "neighbourcell intra","LTE",2300,364,-10,-99,-63,0,-,-,-,-,-
 "neighbourcell intra","LTE",2300,110,-18,-105,-80,0,-,-,-,-,-
 "neighbourcell intra","LTE",2300,280,-17,-104,-79,0,-,-,-,-,-
OK
UserDevice> AT+MGPSNMEA
+MGPSNMEA:
 $GPGGA,214233.00,3857.132438,N,09515.837670,W,1,08,1.5,319.2,M,-32.0,M,,*51
 $GPRMC,214233.00,A,3857.132438,N,09515.837670,W,0.0,42.3,290125,2.5,E,A,V*64
OK
UserDevice> AT+MMSVRCELL
+MMSRVCELL:
 "servingcell","NOCONN","LTE","FDD",311,480,34F0916,364,2300,4,5,5,D806,-101,-11,-70,10,-
OK
UserDevice> AT+MMNEBCELL
+MMNEBCELL:
 "neighbourcell intra","LTE",2300,364,-11,-101,-67,0,-,-,-,-,-
 "neighbourcell intra","LTE",2300,110,-20,-109,-82,0,-,-,-,-,-
 "neighbourcell intra","LTE",2300,280,-20,-111,-82,0,-,-,-,-,-
 "neighbourcell intra","LTE",2300,332,-17,-107,-82,0,-,-,-,-,-
OK
UserDevice> AT+MGPSNMEA
+MGPSNMEA:
 $GPGGA,214234.00,3857.132437,N,09515.837671,W,1,08,1.5,319.2,M,-32.0,M,,*58
 $GPRMC,214234.00,A,3857.132437,N,09515.837671,W,0.0,42.3,290125,2.5,E,A,V*6D
OK
UserDevice> AT+MMSVRCELL
+MMSRVCELL:
 "servingcell","NOCONN","LTE","FDD",311,480,34F0916,364,2300,4,5,5,D806,-101,-11,-67,10,-
OK
UserDevice> AT+MMNEBCELL
+MMNEBCELL:
 "neighbourcell intra","LTE",2300,364,-11,-100,-68,0,-,-,-,-,-
 "neighbourcell intra","LTE",2300,110,-19,-107,-80,0,-,-,-,-,-
 "neighbourcell intra","LTE",2300,280,-18,-107,-80,0,-,-,-,-,-
OK
UserDevice> AT+MGPSNMEA
+MGPSNMEA:
 $GPGGA,214235.00,3857.132433,N,09515.837672,W,1,08,1.5,319.2,M,-32.0,M,,*5E
 $GPRMC,214235.00,A,3857.132433,N,09515.837672,W,0.0,42.3,290125,2.5,E,A,V*6B
OK
UserDevice> AT+MMSVRCELL
+MMSRVCELL:
 "servingcell","NOCONN","LTE","FDD",311,480,34F0916,364,2300,4,5,5,D806,-100,-12,-65,9,-
OK
UserDevice> AT+MMNEBCELL
+MMNEBCELL:
 "neighbourcell intra","LTE",2300,364,-13,-100,-65,0,-,-,-,-,-
 "neighbourcell intra","LTE",2300,331,-20,-112,-76,0,-,-,-,-,-
 "neighbourcell intra","LTE",2300,280,-16,-103,-75,0,-,-,-,-,-
 "neighbourcell intra","LTE",2300,332,-18,-103,-76,0,-,-,-,-,-
 "neighbourcell intra","LTE",2300,436,-20,-113,-76,0,-,-,-,-,-
 "neighbourcell intra","LTE",2300,110,-18,-103,-76,0,-,-,-,-,-
OK
UserDevice> AT+MGPSNMEA
+MGPSNMEA:
 $GPGGA,214236.00,3857.132431,N,09515.837673,W,1,08,1.5,319.3,M,-32.0,M,,*5F
 $GPRMC,214236.00,A,3857.132431,N,09515.837673,W,0.0,42.3,290125,2.5,E,A,V*6B
OK
UserDevice> AT+MMSVRCELL
+MMSRVCELL:
